num,uni_num,序号,学校名称,学校标识码,主管部门,所在地,办学层次,备注,campusName,lng,lat,uid,area
0,0,1,北京大学,4111010001,教育部,北京市,本科,公办,北京大学,116.316833,39.998877,ddfd7c2d8db36cf39ee3219e,海淀区
1,0,1,北京大学,4111010001,教育部,北京市,本科,公办,北京大学(医学部),116.365211,39.990025,cbc2b7eb74bb180fb5147f02,海淀区
2,0,1,北京大学,4111010001,教育部,北京市,本科,公办,北京大学(昌平校区),116.196608,40.253428,a89895dca5dbaa3e2b3a9fd4,昌平区
3,0,1,北京大学,4111010001,教育部,北京市,本科,公办,北京大学(大兴校区),116.363768,39.764275,c2238e3a506733073686f403,大兴区
4,1,2,中国人民大学,4111010002,教育部,北京市,本科,公办,中国人民大学,116.319769,39.976546,055227e268dbedb34d776e28,海淀区
5,1,2,中国人民大学,4111010002,教育部,北京市,本科,公办,中国人民大学(北校区),116.317181,39.980738,527dbd031eb20b80cbe33c5a,海淀区
6,1,2,中国人民大学,4111010002,教育部,北京市,本科,公办,中国人民大学(老校区),116.421411,39.939907,0319516aabb22aac17c8f6fe,东城区
7,1,2,中国人民大学,4111010002,教育部,北京市,本科,公办,中国人民大学(通州校区),116.754083,39.912948,b467b4c5dec1faa6cb2915b1,通州区
8,1,2,中国人民大学,4111010002,教育部,北京市,本科,公办,中国人民大学,116.322402,39.975529,59d1d6c2cc2c0e1b5e17c387,海淀区
9,1,2,中国人民大学,4111010002,教育部,北京市,本科,公办,中国人民大学附属中学,116.320708,39.980479,0c9506efc63eeca8ae04575a,海淀区
10,2,3,清华大学,4111010003,教育部,北京市,本科,公办,清华大学,116.333374,40.009645,d8cf2f3ebd4968cfd618b7a7,海淀区
11,2,3,清华大学,4111010003,教育部,北京市,本科,公办,清华大学-美术学院,116.342774,40.005362,a2ba9815c104456f343a714c,海淀区
12,2,3,清华大学,4111010003,教育部,北京市,本科,公办,清华大学附属中学,116.325627,40.015918,bd5046e8b6a81241d72ce26f,海淀区
13,2,3,清华大学,4111010003,教育部,北京市,本科,公办,清华大学(医学部),116.421335,39.917312,e22cbe8e89eeb377fb2d618f,东城区
14,3,4,北京交通大学,4111010004,教育部,北京市,本科,公办,北京交通大学,116.34974,39.957902,5f5c486caf35b2ba97ec846c,海淀区
15,3,4,北京交通大学,4111010004,教育部,北京市,本科,公办,北京交通大学(东校区),116.353941,39.952935,23b5d6201cac7273220220af,海淀区
16,3,4,北京交通大学,4111010004,教育部,北京市,本科,公办,北京交通大学,116.349912,39.952274,465b1e31ad7b7a18306212a3,海淀区
17,3,4,北京交通大学,4111010004,教育部,北京市,本科,公办,北京交通大学,116.348955,39.956615,d5e477406266d67f4afd3f2a,海淀区
18,4,5,北京工业大学,4111010005,北京市,北京市,本科,公办,北京工业大学,116.488157,39.881251,8fd50150a1dc2bb63c9a5ed4,朝阳区
19,4,5,北京工业大学,4111010005,北京市,北京市,本科,公办,北京工业大学(通州校区),116.675151,39.93553,d157b9881ad9098270455ba4,通州区
20,4,5,北京工业大学,4111010005,北京市,北京市,本科,公办,北京工业大学耿丹学院,116.658646,40.221871,d1469ee7b3614a628533048b,顺义区
21,4,5,北京工业大学,4111010005,北京市,北京市,本科,公办,北京工业大学,116.483837,39.883546,15d949662d127e18a10464af,朝阳区
22,4,5,北京工业大学,4111010005,北京市,北京市,本科,公办,北京工业大学,116.484004,39.883923,e7aa13e6b1c675dbdb131833,朝阳区
23,5,6,北京航空航天大学,4111010006,工业和信息化部,北京市,本科,公办,北京航空航天大学,116.354447,39.991858,a599ab02adf1c3923ce23157,海淀区
24,5,6,北京航空航天大学,4111010006,工业和信息化部,北京市,本科,公办,北京航空航天大学(沙河校区),116.276079,40.16096,d420fc382fdc7be9f4eafc23,昌平区
25,5,6,北京航空航天大学,4111010006,工业和信息化部,北京市,本科,公办,北京航空航天大学,116.360357,39.988475,855dd4613be21a321811d5ef,海淀区
26,5,6,北京航空航天大学,4111010006,工业和信息化部,北京市,本科,公办,北京航空航天大学,116.360416,39.988559,72220ce9c0e44de05d0d0269,海淀区
27,5,6,北京航空航天大学,4111010006,工业和信息化部,北京市,本科,公办,北京航空航天大学,116.360281,39.988584,5f8da20d332798fc6e476099,海淀区
28,5,6,北京航空航天大学,4111010006,工业和信息化部,北京市,本科,公办,北京航空航天大学-为民楼(学院路校区),116.356188,39.984479,619b48b0cb03c8be59bbbc56,海淀区
29,5,6,北京航空航天大学,4111010006,工业和信息化部,北京市,本科,公办,北京航空航天大学(学院路校区)-文理学院,116.353815,39.983619,a6c132efe0ebb2b8223bf268,海淀区
30,6,7,北京理工大学,4111010007,工业和信息化部,北京市,本科,公办,北京理工大学,116.322726,39.966659,679a1d3e81e0ad58ab0dd8ce,海淀区
31,6,7,北京理工大学,4111010007,工业和信息化部,北京市,本科,公办,北京理工大学(良乡校区),116.178278,39.738763,69fcd6df1f1ffa2fca2915c6,房山区
32,6,7,北京理工大学,4111010007,工业和信息化部,北京市,本科,公办,北京理工大学(房山分校),116.091905,39.727732,95f20f68d3ef302007026f0d,房山区
33,8,9,北方工业大学,4111010009,北京市,北京市,本科,公办,北方工业大学,116.21485,39.933738,c1c33d67d3aec4053486f4ae,石景山区
34,8,9,北方工业大学,4111010009,北京市,北京市,本科,公办,北方工业大学附属学校(原杨庄中学),116.202684,39.924383,31ad7aa7051d77f2d22dd62f,石景山区
35,9,10,北京化工大学,4111010010,教育部,北京市,本科,公办,北京化工大学(东校区),116.427674,39.977968,d084dd8d97385276b817e751,朝阳区
36,9,10,北京化工大学,4111010010,教育部,北京市,本科,公办,北京化工大学(昌平新校区),116.157203,40.259982,1951f5c48b7d6057990050ac,昌平区
37,9,10,北京化工大学,4111010010,教育部,北京市,本科,公办,北京化工大学(西校区),116.310223,39.94827,399819ed774a2dc1077ce8b0,海淀区
38,10,11,北京工商大学,4111010011,北京市,北京市,本科,公办,北京工商大学(阜成路校区),116.32291,39.931808,4d122e853552ef0ff33cba44,海淀区
39,10,11,北京工商大学,4111010011,北京市,北京市,本科,公办,北京工商大学(良乡校区),116.173806,39.72606,e08498960ff9be235bf6be58,房山区
40,10,11,北京工商大学,4111010011,北京市,北京市,本科,公办,北京工商大学嘉华学院,116.738704,39.941772,e2c734e48975d15d15a19064,通州区
41,10,11,北京工商大学,4111010011,北京市,北京市,本科,公办,北京工商大学良乡校区(西区),116.17051,39.724782,11eccf8066150eb3bbbd6303,房山区
42,10,11,北京工商大学,4111010011,北京市,北京市,本科,公办,北京工商大学东区法学院,116.326915,39.930303,0901ce84ee093f59e3110340,海淀区
43,10,11,北京工商大学,4111010011,北京市,北京市,本科,公办,北京工商大学良乡校区(东区),116.176146,39.724734,08364d68a873581ad12dd63f,房山区
44,10,11,北京工商大学,4111010011,北京市,北京市,本科,公办,北京工商大学(良乡),116.173147,39.724545,bfc194ccbf7fa3ec902ca3ec,房山区
45,11,12,北京服装学院,4111010012,北京市,北京市,本科,公办,北京服装学院,116.437457,39.980234,fe3530327a511d0933621276,朝阳区
46,11,12,北京服装学院,4111010012,北京市,北京市,本科,公办,北京服装学院(北校区),116.432532,40.154817,ffd6d403cc4c36f217b54b9c,昌平区
47,11,12,北京服装学院,4111010012,北京市,北京市,本科,公办,北京服装学院(牡丹园校区),116.379518,39.987744,943fe06e34c529477c29bda2,海淀区
48,12,13,北京邮电大学,4111010013,教育部,北京市,本科,公办,北京邮电大学,116.364594,39.96725,d15c450f32f5b7317ec8767f,海淀区
49,12,13,北京邮电大学,4111010013,教育部,北京市,本科,公办,北京邮电大学(宏福校区),116.381659,40.114876,a3823d541f0ad05dc9fa5f41,昌平区
50,12,13,北京邮电大学,4111010013,教育部,北京市,本科,公办,北京邮电大学(沙河校区),116.295299,40.163661,bba40e7b796067514e776e24,昌平区
51,12,13,北京邮电大学,4111010013,教育部,北京市,本科,公办,北京邮电大学世纪学院,115.89997,40.377471,edabd8140827cac4774ff18c,延庆区
52,12,13,北京邮电大学,4111010013,教育部,北京市,本科,公办,北京邮电大学(眷20楼),116.365726,39.964931,8638f79d8ac9f781fbdc85ce,海淀区
53,12,13,北京邮电大学,4111010013,教育部,北京市,本科,公办,北京邮电大学(眷15楼),116.362022,39.965433,e5e3ef6fdc130c484c554744,海淀区
54,13,14,北京印刷学院,4111010015,北京市,北京市,本科,公办,北京印刷学院,116.33571,39.750402,1c410871dd1e9c791ef74dbf,大兴区
55,13,14,北京印刷学院,4111010015,北京市,北京市,本科,公办,北京印刷学院(康庄校区),116.319665,39.765338,93df0dc3f7c6a22b882fb5fa,大兴区
56,13,14,北京印刷学院,4111010015,北京市,北京市,本科,公办,北京印刷学院附属小学,116.32161,39.759931,1edb07eea31b233e990050d1,大兴区
57,14,15,北京建筑大学,4111010016,北京市,北京市,本科,公办,北京建筑大学,116.347969,39.940685,2ff3894f694272ad6f3e1b00,西城区
58,14,15,北京建筑大学,4111010016,北京市,北京市,本科,公办,北京建筑大学(大兴校区),116.292894,39.754691,1c5e2928aaf259f742d63ea1,大兴区
59,14,15,北京建筑大学,4111010016,北京市,北京市,本科,公办,北京建筑大学附属中学(芦城校区),116.30358,39.754495,fac7e29eb55d291dc9e33cb8,大兴区
60,14,15,北京建筑大学,4111010016,北京市,北京市,本科,公办,北京建筑大学附属小学,116.342941,39.94102,1a421787c208f3a5c929154a,西城区
61,15,16,北京石油化工学院,4111010017,北京市,北京市,本科,公办,北京石油化工学院,116.332327,39.753911,b38630159a794099cafa5fc4,大兴区
62,15,16,北京石油化工学院,4111010017,北京市,北京市,本科,公办,北京石油化工学院(康庄校区),116.319674,39.76316,edc42e74661e0c2514c8f603,大兴区
63,15,16,北京石油化工学院,4111010017,北京市,北京市,本科,公办,北京石油化工学院(燕山校区),115.951516,39.746033,74a2770163daffed31870ae1,房山区
64,16,17,北京电子科技学院,4111010018,中央办公厅,北京市,本科,公办,北京电子科技学院,116.286097,39.843926,563ace11583fd4c9d1f49eee,丰台区
65,17,18,中国农业大学,4111010019,教育部,北京市,本科,公办,中国农业大学(东校区),116.364154,40.010185,9abe8f3c93a5053552e5c5d1,海淀区
66,17,18,中国农业大学,4111010019,教育部,北京市,本科,公办,中国农业大学(西校区),116.289259,40.033156,6fdf4c8d04a08f4a8836eee6,海淀区
67,18,19,北京农学院,4111010020,北京市,北京市,本科,公办,北京农学院,116.317085,40.100942,750368359adc38af5e0d0265,昌平区
68,18,19,北京农学院,4111010020,北京市,北京市,本科,公办,北京农学院大学科技园(二区),116.146509,40.184895,dfce3eb4265327618505bf78,昌平区
69,18,19,北京农学院,4111010020,北京市,北京市,本科,公办,北京农学院-家属宿舍区,116.312241,40.098128,e3e2cd9d83a6b8e3c7f50d65,昌平区
70,18,19,北京农学院,4111010020,北京市,北京市,本科,公办,北京农学院(北校区),116.316014,40.107565,a71b2b31e3cba35b34b06c7d,昌平区
71,19,20,北京林业大学,4111010022,教育部,北京市,本科,公办,北京林业大学,116.351835,40.007893,4cf8d24e3ad2c5e49df779ab,海淀区
72,19,20,北京林业大学,4111010022,教育部,北京市,本科,公办,北京林业大学(鹫峰校区),116.111748,40.070554,a9b456829b6f1d3e99005020,海淀区
73,19,20,北京林业大学,4111010022,教育部,北京市,本科,公办,北京林业大学,116.350378,40.006433,bb6109ec89d4c68fad31e50b,海淀区
74,20,21,北京协和医学院,4111010023,国家卫生健康委员会,北京市,本科,公办,北京协和医学院,116.421237,39.917338,88759294875f60da5d17c342,东城区
75,20,21,北京协和医学院,4111010023,国家卫生健康委员会,北京市,本科,公办,北京协和医学院护理学院,116.204904,39.949902,7d3a3ce0656be1d902294f1c,石景山区
76,21,22,首都医科大学,4111010025,北京市,北京市,本科,公办,首都医科大学,116.359317,39.865748,665792918de094ac0c0a70a8,丰台区
77,21,22,首都医科大学,4111010025,北京市,北京市,本科,公办,首都医科大学燕京医学院,116.672757,40.133832,91c13f93bbcecffa20f01788,顺义区
78,21,22,首都医科大学,4111010025,北京市,北京市,本科,公办,首都医科大学(花乡校区),116.330441,39.849214,94b60a2720a7e47f08ccdd67,丰台区
79,22,23,北京中医药大学,4111010026,教育部,北京市,本科,公办,北京中医药大学(西校区),116.434476,39.977288,0679a1395d69422deee4a5fa,朝阳区
80,22,23,北京中医药大学,4111010026,教育部,北京市,本科,公办,北京中医药大学(东校区),116.478352,39.986835,c7eca12b9ebd934ae115f9e3,朝阳区
81,22,23,北京中医药大学,4111010026,教育部,北京市,本科,公办,北京中医药大学(良乡校区),116.175486,39.718074,1e57aec92c44894da11de98f,房山区
82,22,23,北京中医药大学,4111010026,教育部,北京市,本科,公办,北京中医药大学房山医院(良乡分院),116.142014,39.735201,56f2f696933803990aa8d4c2,房山区
83,22,23,北京中医药大学,4111010026,教育部,北京市,本科,公办,北京中医药大学,116.438854,39.870185,3b10983409d966875fbe8606,丰台区
84,22,23,北京中医药大学,4111010026,教育部,北京市,本科,公办,北京中医药大学东直门医院(国际部),116.423388,39.93695,3fd50e2107e2af186fc02c80,东城区
85,23,24,北京师范大学,4111010027,教育部,北京市,本科,公办,北京师范大学,116.372141,39.967345,86a2784e6fdeb80caecb665c,海淀区
86,23,24,北京师范大学,4111010027,教育部,北京市,本科,公办,北京师范大学(西城校园),116.390422,39.942497,cc0849a0b9d8e15094031902,西城区
87,23,24,北京师范大学,4111010027,教育部,北京市,本科,公办,北京师范大学(新校区),116.271415,40.15528,633d8b9d2a050a2774026992,昌平区
88,23,24,北京师范大学,4111010027,教育部,北京市,本科,公办,北京师范大学(南院),116.37004,39.962908,30a00b0b8d826910220220c3,海淀区
89,23,24,北京师范大学,4111010027,教育部,北京市,本科,公办,北京师范大学,116.377365,39.965531,d1962a6c73f226a7cc06a4f0,海淀区
90,23,24,北京师范大学,4111010027,教育部,北京市,本科,公办,北京师范大学(科培校区),116.230124,39.957538,dcb75abb6271a9fa9222e059,海淀区
91,24,25,首都师范大学,4111010028,北京市,北京市,本科,公办,首都师范大学,116.312068,39.936212,d52831f90c2f03a72ffaa7ad,海淀区
92,24,25,首都师范大学,4111010028,北京市,北京市,本科,公办,首都师范大学(良乡校区),116.185649,39.71881,26e628c11116dd33dcee8b78,房山区
93,24,25,首都师范大学,4111010028,北京市,北京市,本科,公办,首都师范大学(北一区),116.314369,39.943711,c1f7975d70409c77b8bd634b,海淀区
94,24,25,首都师范大学,4111010028,北京市,北京市,本科,公办,首都师范大学(东校区),116.331108,39.930868,ab1ca75c98faaf6340afe620,海淀区
95,24,25,首都师范大学,4111010028,北京市,北京市,本科,公办,首都师范大学附属中学,116.307008,39.936286,3be122e15263a8521ef74d7c,海淀区
96,24,25,首都师范大学,4111010028,北京市,北京市,本科,公办,首都师范大学科德学院,116.318854,39.51881,ceb1f52e4501aafa75e5b66b,大兴区
97,24,25,首都师范大学,4111010028,北京市,北京市,本科,公办,首都师范大学-学前教育学院,116.32211,39.933213,6588d692675829e2a8175a20,海淀区
98,24,25,首都师范大学,4111010028,北京市,北京市,本科,公办,首都师范大学大兴附属中学,116.361897,39.725463,ca50bea000caf58c58f6bea4,大兴区
99,25,26,首都体育学院,4111010029,北京市,北京市,本科,公办,首都体育学院,116.353823,39.975812,97772daad3e64869a0acc474,海淀区
100,25,26,首都体育学院,4111010029,北京市,北京市,本科,公办,首都体育学院(凤凰岭校区),116.118907,40.085131,925c550f16cef9b25b3ac8a9,海淀区
101,26,27,北京外国语大学,4111010030,教育部,北京市,本科,公办,北京外国语大学,116.319536,39.961489,be1ea5ef6d3b72bf15948ead,海淀区
102,26,27,北京外国语大学,4111010030,教育部,北京市,本科,公办,北京外国语大学(西校区),116.312918,39.961199,4cee79615c283c592db96d3b,海淀区
103,27,28,北京第二外国语学院,4111010031,北京市,北京市,本科,公办,北京第二外国语学院,116.5701,39.918528,bcaebff84c6a6554c8e33c89,朝阳区
104,27,28,北京第二外国语学院,4111010031,北京市,北京市,本科,公办,北京第二外国语学院(贯培学院),116.003314,40.459497,8c5ef70be2992d80f50e77ce,延庆区
105,27,28,北京第二外国语学院,4111010031,北京市,北京市,本科,公办,北京第二外国语学院附属中学(杨闸校区),116.598697,39.915719,5940c958a0245359c16c14b8,朝阳区
106,28,29,北京语言大学,4111010032,教育部,北京市,本科,公办,北京语言大学,116.352933,40.000642,231325da27c3bd1f88db73df,海淀区
107,28,29,北京语言大学,4111010032,教育部,北京市,本科,公办,北京语言大学,116.351376,39.998824,a2acd142100f17f061180908,海淀区
108,28,29,北京语言大学,4111010032,教育部,北京市,本科,公办,北京语言大学,116.351927,39.998764,97713343e54d24774afc8d93,海淀区
109,28,29,北京语言大学,4111010032,教育部,北京市,本科,公办,北京语言大学,116.351927,39.998764,6a0f5ba99755a54ba2d23066,海淀区
110,28,29,北京语言大学,4111010032,教育部,北京市,本科,公办,北京语言大学-家属区,116.349232,40.000197,bff8fa7d896265a1c8213d1a,海淀区
111,29,30,中国传媒大学,4111010033,教育部,北京市,本科,公办,中国传媒大学,116.563871,39.918036,9db9b00af2830f7c4f6d46ca,朝阳区
112,29,30,中国传媒大学,4111010033,教育部,北京市,本科,公办,中国传媒大学-国际学院,116.56476,39.916712,248e7c43c0fda00e1d1d117f,朝阳区
113,29,30,中国传媒大学,4111010033,教育部,北京市,本科,公办,中国传媒大学广告学院,116.565492,39.920737,31074c8ff81b327bfb221361,朝阳区
114,30,31,中央财经大学,4111010034,教育部,北京市,本科,公办,中央财经大学(学院南路校区),116.349163,39.965211,ec31c0c93164a0d0ab059d8e,海淀区
115,30,31,中央财经大学,4111010034,教育部,北京市,本科,公办,中央财经大学(沙河新校区),116.287948,40.177891,9447f6d6c1a737da71210b79,昌平区
116,30,31,中央财经大学,4111010034,教育部,北京市,本科,公办,中央财经大学(清河校区),116.329452,40.037424,b1c556e869f4650db4265551,海淀区
117,31,32,对外经济贸易大学,4111010036,教育部,北京市,本科,公办,对外经济贸易大学,116.434341,39.986491,fff88d28c2ff684eb54f5434,朝阳区
118,31,32,对外经济贸易大学,4111010036,教育部,北京市,本科,公办,对外经济贸易大学宿舍(麦子店街),116.475257,39.95029,3a00ec4fba280a7e364aaeea,朝阳区
119,32,33,北京物资学院,4111010037,北京市,北京市,本科,公办,北京物资学院,116.644583,39.936967,d991e116ae2909551f389464,通州区
120,32,33,北京物资学院,4111010037,北京市,北京市,本科,公办,北京物资学院,116.644041,39.933212,82f8df8eb95715c6c27da295,通州区
121,32,33,北京物资学院,4111010037,北京市,北京市,本科,公办,北京物资学院(右安门校区),116.364947,39.876096,2dbf29ef088c0bde43afe644,西城区
122,32,33,北京物资学院,4111010037,北京市,北京市,本科,公办,北京物资学院,116.643866,39.933135,0f4e6cd50f57ebd2adcb66de,通州区
123,32,33,北京物资学院,4111010037,北京市,北京市,本科,公办,北京物资学院,116.644307,39.933279,263597059caca27330621222,通州区
124,32,33,北京物资学院,4111010037,北京市,北京市,本科,公办,北京物资学院-商学院,116.643463,39.93457,c2ddc1d9a7c37c42d8131830,通州区
125,33,34,首都经济贸易大学,4111010038,北京市,北京市,本科,公办,首都经济贸易大学,116.323563,39.8476,f2cc41465657eb0dcd04ef32,丰台区
126,33,34,首都经济贸易大学,4111010038,北京市,北京市,本科,公办,首都经济贸易大学(红庙校区),116.482491,39.920327,64af3bce6457eb87d1f49e68,朝阳区
127,33,34,首都经济贸易大学,4111010038,北京市,北京市,本科,公办,首都经济贸易大学(密云分校),116.835785,40.374525,02d24270d30c8aa002897298,密云区
128,33,34,首都经济贸易大学,4111010038,北京市,北京市,本科,公办,首都经济贸易大学华侨学院,116.318153,39.846443,e6b71a5b670fafec6e4760b9,丰台区
129,34,35,中国消防救援学院,4111010039,应急管理部,北京市,本科,公办,中国消防救援学院,116.094092,40.207776,2a9371b9e3773f0331870acf,昌平区
130,34,35,中国消防救援学院,4111010039,应急管理部,北京市,本科,公办,中国消防救援学院北京警种学院,116.094086,40.207961,9f725bc45d6668a3744ff111,昌平区
131,35,36,外交学院,4111010040,外交部,北京市,本科,公办,外交学院(展览路校区),116.352266,39.932071,d82d669758714ca6d518b700,西城区
132,35,36,外交学院,4111010040,外交部,北京市,本科,公办,外交学院,116.287162,40.160217,a9b4afe3c46357dd5b109346,昌平区
133,36,37,中国人民公安大学,4111010041,公安部,北京市,本科,公办,中国人民公安大学(木樨地校区),116.343705,39.906724,1b9803bb255bb245c0364441,西城区
134,36,37,中国人民公安大学,4111010041,公安部,北京市,本科,公办,中国人民公安大学(团河校区),116.37251,39.771627,6ac0259edc779bd6c909f0e7,大兴区
135,36,37,中国人民公安大学,4111010041,公安部,北京市,本科,公办,中国人民公安大学东小区,116.346501,39.907531,5946adf7371b4880f7b916f3,西城区
136,37,38,国际关系学院,4111010042,教育部,北京市,本科,公办,国际关系学院,116.292752,40.010144,5a3a97e328d08884b42655f6,海淀区
137,37,38,国际关系学院,4111010042,教育部,北京市,本科,公办,国际关系学院社区,116.292351,40.010664,5f4ac028e14489bbca1b955f,海淀区
138,38,39,北京体育大学,4111010043,国家体育总局,北京市,本科,公办,北京体育大学,116.325654,40.029575,7c86f335bbcc18fc5fbe8669,海淀区
139,38,39,北京体育大学,4111010043,国家体育总局,北京市,本科,公办,北京体育大学,116.320652,40.027677,fded72e0792cf934912ca3cb,海淀区
140,38,39,北京体育大学,4111010043,国家体育总局,北京市,本科,公办,北京体育大学-武术学院,116.328758,40.028224,7d3d48ab806494d0d0ff2351,海淀区
141,39,40,中央音乐学院,4111010045,教育部,北京市,本科,公办,中央音乐学院,116.365604,39.908296,74f24595717502a1441a32c6,西城区
142,39,40,中央音乐学院,4111010045,教育部,北京市,本科,公办,中央音乐学院附中(小学部),116.432968,39.870806,c34ccecbc602dd58f92d6141,丰台区
143,40,41,中国音乐学院,4111010046,北京市,北京市,本科,公办,中国音乐学院,116.385599,39.997789,06d2dffd135142f689f15d8d,朝阳区
144,40,41,中国音乐学院,4111010046,北京市,北京市,本科,公办,中国音乐学院,116.384294,39.997095,14717f3c35881a72f50e7761,朝阳区
145,40,41,中国音乐学院,4111010046,北京市,北京市,本科,公办,中国音乐学院(丰台职大校区),116.292481,39.875185,0f823c614b75825cf8f0cb1f,丰台区
146,40,41,中国音乐学院,4111010046,北京市,北京市,本科,公办,中国音乐学院附属北京实验学校,116.418034,40.033694,5afc82d5b9888d33d2f49e5c,朝阳区
147,41,42,中央美术学院,4111010047,教育部,北京市,本科,公办,中央美术学院,116.470254,39.989397,05ccdb80579f536bf7eafcb2,朝阳区
148,42,43,中央戏剧学院,4111010048,教育部,北京市,本科,公办,中央戏剧学院(东城校区),116.411001,39.942254,ff33e685db28935b2bb97ce7,东城区
149,42,43,中央戏剧学院,4111010048,教育部,北京市,本科,公办,中央戏剧学院(昌平校区),116.382337,40.110602,c2a678928ec7de7300ff2da3,昌平区
150,42,43,中央戏剧学院,4111010048,教育部,北京市,本科,公办,中央戏剧学院-北区,116.411547,39.943049,fa7da3e882cef16242d63ed2,东城区
151,43,44,中国戏曲学院,4111010049,北京市,北京市,本科,公办,中国戏曲学院,116.339316,39.869496,be1ea5ef7ec403be14948ed5,丰台区
152,43,44,中国戏曲学院,4111010049,北京市,北京市,本科,公办,中国戏曲学院,116.340882,39.87337,d0a28d5719f7194cd92f28b8,丰台区
153,43,44,中国戏曲学院,4111010049,北京市,北京市,本科,公办,中国戏曲学院附中大兴教学二区,116.384912,39.782437,005861083d1417a547e2749f,大兴区
154,43,44,中国戏曲学院,4111010049,北京市,北京市,本科,公办,中国戏曲学院附属中等戏曲学校,116.389236,39.885826,d7fd2ad3fa3d0d540bccdde6,西城区
155,43,44,中国戏曲学院,4111010049,北京市,北京市,本科,公办,中国戏曲学院(临时站),116.340831,39.873367,ab247b84a47463f81f389424,丰台区
156,44,45,北京电影学院,4111010050,北京市,北京市,本科,公办,北京电影学院,116.36231,39.977148,e80aad7984e990c3081cc791,海淀区
157,44,45,北京电影学院,4111010050,北京市,北京市,本科,公办,北京电影学院(怀柔校区),116.702756,40.291574,861c6f9fde89845d3310af05,怀柔区
158,44,45,北京电影学院,4111010050,北京市,北京市,本科,公办,北京电影学院(宏福校区),116.379024,40.118562,195ae8ff1785b59949cc4ab0,昌平区
159,44,45,北京电影学院,4111010050,北京市,北京市,本科,公办,北京电影学院-表演学院,116.362947,39.977391,aba6ab404b1622be9d82ea40,海淀区
160,45,46,北京舞蹈学院,4111010051,北京市,北京市,本科,公办,北京舞蹈学院,116.325777,39.952867,4eb3b5333ae90e6c43024514,海淀区
161,45,46,北京舞蹈学院,4111010051,北京市,北京市,本科,公办,北京舞蹈学院舞蹈考级院(莲花桥校区),116.316034,39.900322,0e1d092a7c2bfceead080ff7,丰台区
162,45,46,北京舞蹈学院,4111010051,北京市,北京市,本科,公办,北京舞蹈学院舞蹈考级院(大望路培训中心),116.488506,39.890423,835a69e42a49469d3913fde6,朝阳区
163,45,46,北京舞蹈学院,4111010051,北京市,北京市,本科,公办,北京舞蹈学院舞蹈考级院(广源校区),116.318363,39.949493,4add8419a3c639d46018091c,海淀区
164,45,46,北京舞蹈学院,4111010051,北京市,北京市,本科,公办,北京舞蹈学院剧院,116.325875,39.953058,2d6fb7143eb63fc9a8f0cd35,海淀区
165,45,46,北京舞蹈学院,4111010051,北京市,北京市,本科,公办,北京舞蹈学院舞蹈考级院(佳亿青年汇店),116.523638,39.927886,ca3929d9b65c4da215a1908f,朝阳区
166,46,47,中央民族大学,4111010052,国家民委,北京市,本科,公办,中央民族大学,116.327126,39.956624,63b9fb342cde30694f3a59bf,海淀区
167,46,47,中央民族大学,4111010052,国家民委,北京市,本科,公办,中央民族大学(丰台校区),116.119617,39.814231,2296e21457b7ba1bb7265557,丰台区
168,46,47,中央民族大学,4111010052,国家民委,北京市,本科,公办,中央民族大学,116.331019,39.954079,1c43ad6b6082af1614948ede,海淀区
169,46,47,中央民族大学,4111010052,国家民委,北京市,本科,公办,中央民族大学附属中学(朝阳校区),116.485043,39.932036,6f635780619cc6b6c72ba10b,朝阳区
170,46,47,中央民族大学,4111010052,国家民委,北京市,本科,公办,中央民族大学附属中学,116.322412,39.95697,9f97b1c5198c4906b64f547c,海淀区
171,47,48,中国政法大学,4111010053,教育部,北京市,本科,公办,中国政法大学(海淀校区),116.357865,39.971079,068c79e428f541d524d2bb92,海淀区
172,47,48,中国政法大学,4111010053,教育部,北京市,本科,公办,中国政法大学(昌平校区),116.254443,40.230445,ff2f9f685a2263ee0d0a70a9,昌平区
173,47,48,中国政法大学,4111010053,教育部,北京市,本科,公办,中国政法大学北门(昌平),116.25434,40.230837,58717ed91b906cd6cb213d2c,昌平区
174,47,48,中国政法大学,4111010053,教育部,北京市,本科,公办,中国政法大学(昌平),116.251309,40.226926,89185174ab02ad0db54f54be,昌平区
175,48,49,华北电力大学,4111010054,教育部,北京市,本科,公办,华北电力大学,116.31637,40.095687,a68342ff68e95cedb1077d0c,昌平区
176,48,49,华北电力大学,4111010054,教育部,北京市,本科,公办,华北电力大学-教四楼D区,116.317628,40.094604,e3356df7b39d4c01f942b2fb,昌平区
177,49,50,中华女子学院,4111011149,中华妇女联合会,北京市,本科,公办,中华女子学院,116.441903,40.000844,b411e3618e5bb4dda1d230a8,朝阳区
178,49,50,中华女子学院,4111011149,中华妇女联合会,北京市,本科,公办,中华女子学院(汇佳校区),116.247825,40.201689,18294a40d2cd1eaa61685854,昌平区
179,50,51,北京信息科技大学,4111011232,北京市,北京市,本科,公办,北京信息科技大学,116.352761,40.044176,ca083f09e62ee9bf42d63eb6,海淀区
180,50,51,北京信息科技大学,4111011232,北京市,北京市,本科,公办,北京信息科技大学(健翔桥校区),116.389022,39.995253,3b60711cd64d37601f3894c2,朝阳区
181,50,51,北京信息科技大学,4111011232,北京市,北京市,本科,公办,北京信息科技大学清河小营校区-南区,116.356322,40.042214,227c8bd6d79082eb130daafb,海淀区
182,50,51,北京信息科技大学,4111011232,北京市,北京市,本科,公办,北京信息科技大学(酒仙桥校区),116.495674,39.970867,befdb2928ab985e18615418d,朝阳区
183,50,51,北京信息科技大学,4111011232,北京市,北京市,本科,公办,北京信息科技大学清河小营校区-信息管理学院,116.353407,40.044967,fe49c73a5e5b98e66849f3c7,海淀区
184,50,51,北京信息科技大学,4111011232,北京市,北京市,本科,公办,北京信息科技大学新校区临时办公区,116.243735,40.150292,0e4aa216bca6fd362bd7ab11,昌平区
185,54,55,北京联合大学,4111011417,北京市,北京市,本科,公办,北京联合大学,116.433682,39.996699,fa285f7cdb84de4c2cb17ebe,朝阳区
186,54,55,北京联合大学,4111011417,北京市,北京市,本科,公办,北京联合大学(北苑校区),116.42691,40.044806,6113ef77e4f138698e77279d,朝阳区
187,54,55,北京联合大学,4111011417,北京市,北京市,本科,公办,北京联合大学(什刹海校区),116.40152,39.944926,9d51a22c7165d0c1b6147f0b,西城区
188,54,55,北京联合大学,4111011417,北京市,北京市,本科,公办,北京联合大学应用文理学院,116.361911,39.983166,f6ea6d78010d687322f0177a,海淀区
189,54,55,北京联合大学,4111011417,北京市,北京市,本科,公办,北京联合大学师范学院,116.406789,39.969961,93beb512d70ed8caf02d8306,朝阳区
190,54,55,北京联合大学,4111011417,北京市,北京市,本科,公办,北京联合大学机器人学院,116.464487,39.936406,7bfa08fcbccccb7f24d2bb92,朝阳区
191,54,55,北京联合大学,4111011417,北京市,北京市,本科,公办,北京联合大学特殊教育学院,116.425576,39.873445,d146b3889b5ea5de7402693d,丰台区
192,54,55,北京联合大学,4111011417,北京市,北京市,本科,公办,北京联合大学商务学院,116.493682,39.928597,a5097bfa38ef5563f13cba92,朝阳区
193,54,55,北京联合大学,4111011417,北京市,北京市,本科,公办,北京联合大学旅游学院,116.430876,39.996818,ac70bbcf03d1b038ca291504,朝阳区
194,54,55,北京联合大学,4111011417,北京市,北京市,本科,公办,北京联合大学应用文理学院双清路校区,116.341907,40.025052,70b021a04a445ba560180933,海淀区
195,55,56,北京城市学院,4111011418,北京市教委,北京市,本科,民办,北京城市学院(顺义校区),116.822551,40.165316,bff8fa7d15cdf1a0c9213dbf,顺义区
196,55,56,北京城市学院,4111011418,北京市教委,北京市,本科,民办,北京城市学院(航天城校区),116.26066,40.095761,a12baa40e1b1d956e956faaa,海淀区
197,55,56,北京城市学院,4111011418,北京市教委,北京市,本科,民办,北京城市学院,116.352426,39.992306,56038cc358c8b6d07adbd2e9,海淀区
198,56,57,中国青年政治学院,4111011625,共青团中央,北京市,本科,公办,中国青年政治学院-家属区,116.315255,39.95785,f55688f6be28ce98631c67fd,海淀区
199,58,59,中国劳动关系学院,4111012453,中华全国总工会,北京市,本科,公办,中国劳动关系学院,116.32404,39.935305,bb139bba824ff78d48cc4a0e,海淀区
200,58,59,中国劳动关系学院,4111012453,中华全国总工会,北京市,本科,公办,中国劳动关系学院-高职学院,116.325955,39.935538,8c2b1e41821116444c3a596e,海淀区
201,59,60,首都师范大学科德学院,4111013629,北京市教委,北京市,本科,民办,首都师范大学科德学院,116.318854,39.51881,ceb1f52e4501aafa75e5b66b,大兴区
202,59,60,首都师范大学科德学院,4111013629,北京市教委,北京市,本科,民办,首都师范大学科德学院-应用文理学院,116.319004,39.519401,882d7ce774b94d0f9122e0e7,大兴区
203,59,60,首都师范大学科德学院,4111013629,北京市教委,北京市,本科,民办,首都师范大学科德学院剧院,116.317415,39.51859,2d9e60e569e8da80c9e33c11,大兴区
204,60,61,北京工商大学嘉华学院,4111013630,北京市教委,北京市,本科,民办,北京工商大学嘉华学院,116.738704,39.941772,e2c734e48975d15d15a19064,通州区
205,60,61,北京工商大学嘉华学院,4111013630,北京市教委,北京市,本科,民办,北京工商大学嘉华学院学生服务区,116.738897,39.941481,d5350b79a80b86d035b06cb2,通州区
206,61,62,北京邮电大学世纪学院,4111013901,北京市教委,北京市,本科,民办,北京邮电大学世纪学院,115.89997,40.377471,edabd8140827cac4774ff18c,延庆区
207,61,62,北京邮电大学世纪学院,4111013901,北京市教委,北京市,本科,民办,北京邮电大学世纪学院国际教育学院,115.898037,40.380711,5c3edd80c42fc22158f6bea9,延庆区
208,62,63,北京工业大学耿丹学院,4111013904,北京市教委,北京市,本科,民办,北京工业大学耿丹学院,116.658646,40.221871,d1469ee7b3614a628533048b,顺义区
209,63,64,北京警察学院,4111014019,北京市,北京市,本科,公办,北京警察学院,116.17848,40.260665,4ea3f2f10286ddaaaecb6667,昌平区
210,63,64,北京警察学院,4111014019,北京市,北京市,本科,公办,北京警察学院,116.177204,40.256193,c0a80bd4eab8d63de215f9af,昌平区
211,64,65,北京第二外国语学院中瑞酒店管理学院,4111014201,北京市教委,北京市,本科,民办,北京第二外国语学院中瑞酒店管理学院,116.315862,39.624697,39d43f82eb195e85a8059dd4,大兴区
212,64,65,北京第二外国语学院中瑞酒店管理学院,4111014201,北京市教委,北京市,本科,民办,北京第二外国语学院中瑞酒店管理学院(南门),116.315786,39.62354,01bd48e3d656c6a91ce999a7,大兴区
213,64,65,北京第二外国语学院中瑞酒店管理学院,4111014201,北京市教委,北京市,本科,民办,北京第二外国语学院中瑞酒店管理学院(东1门),116.313964,39.625774,7ff96258230540052902e158,大兴区
214,64,65,北京第二外国语学院中瑞酒店管理学院,4111014201,北京市教委,北京市,本科,民办,北京第二外国语学院中瑞酒店管理学院生活区,116.312838,39.625051,09495853bec2bea3081cc7bb,大兴区
215,65,66,中国科学院大学,4111014430,中国科学院,北京市,本科,公办,中国科学院大学(中关村校区),116.342862,39.989004,ad66713873e0b8e9fa0cadfb,海淀区
216,65,66,中国科学院大学,4111014430,中国科学院,北京市,本科,公办,中国科学院大学(玉泉路校区),116.257207,39.915389,a12baa4033578f57e856fac4,石景山区
217,65,66,中国科学院大学,4111014430,中国科学院,北京市,本科,公办,中国科学院大学(奥运村校区),116.386147,40.009307,516b67aa85260d288433048d,朝阳区
218,65,66,中国科学院大学,4111014430,中国科学院,北京市,本科,公办,中国科学院大学东区,116.69177,40.409056,f2d1e07d0238cdbeab059d28,怀柔区
219,65,66,中国科学院大学,4111014430,中国科学院,北京市,本科,公办,中国科学院大学(雁栖湖校区)-东区,116.693546,40.41192,297801774918e8c633169b18,怀柔区
220,65,66,中国科学院大学,4111014430,中国科学院,北京市,本科,公办,中国科学院大学中关村校区(教学楼),116.336712,39.987939,41ab3da720403a84077ce8e0,海淀区
221,66,67,中国社会科学院大学,4111014596,中国社会科学院,北京市,本科,公办,中国社会科学院大学(良乡校区),116.186757,39.745945,12cdd6c7abd518f82b201a34,房山区
222,66,67,中国社会科学院大学,4111014596,中国社会科学院,北京市,本科,公办,中国社会科学院大学(望京校区),116.484596,39.987371,e74505c1ee1b88d79e95de2d,朝阳区
223,67,93,南开大学,4112010055,教育部,天津市,本科,公办,南开大学(八里台校区),117.17546,39.109442,7a84cea69d5be9e94d55473d,南开区
224,67,93,南开大学,4112010055,教育部,天津市,本科,公办,南开大学(津南校区),117.352678,38.994944,ae4ffd933efe392faaf7294c,津南区
225,67,93,南开大学,4112010055,教育部,天津市,本科,公办,南开大学泰达学院,117.719413,39.032938,d657e160454288ca0a5cb32e,滨海新区
226,68,94,天津大学,4112010056,教育部,天津市,本科,公办,天津大学(卫津路校区),117.180115,39.116464,288435135c339bc84c6d461c,南开区
227,68,94,天津大学,4112010056,教育部,天津市,本科,公办,天津大学(北洋园校区),117.319102,39.004181,e4fb2dba48387fb9db131869,津南区
228,68,94,天津大学,4112010056,教育部,天津市,本科,公办,天津大学,117.328572,39.00997,cbfffc3edd3407229a005040,津南区
229,69,95,天津科技大学,4112010057,天津市,天津市,本科,公办,天津科技大学(滨海校区),117.715812,39.093244,1f4e00d8e1d5604a2cb17e65,滨海新区
230,69,95,天津科技大学,4112010057,天津市,天津市,本科,公办,天津科技大学(河西校区),117.278956,39.075509,05dd7d5f00a27700ad080f38,河西区
231,69,95,天津科技大学,4112010057,天津市,天津市,本科,公办,天津科技大学,117.714006,39.089246,0e738243811c521693114c63,滨海新区
232,69,95,天津科技大学,4112010057,天津市,天津市,本科,公办,天津科技大学(滨海校区)-西院,117.705626,39.094619,f429d5e797243c5f1b11d558,滨海新区
233,69,95,天津科技大学,4112010057,天津市,天津市,本科,公办,天津科技大学-艺术设计学院,117.715283,39.092659,ec393db86312b2fac9e33c04,滨海新区
234,69,95,天津科技大学,4112010057,天津市,天津市,本科,公办,天津科技大学-南院,117.280467,39.072966,486e430e3fd4c06eb9df8f02,河西区
235,69,95,天津科技大学,4112010057,天津市,天津市,本科,公办,天津科技大学西院,117.704444,39.094944,f1250f573e51f020374aae04,滨海新区
236,70,96,天津工业大学,4112010058,天津市,天津市,本科,公办,天津工业大学,117.117765,39.073258,d219bb1d1a038f8af50e77f9,西青区
237,70,96,天津工业大学,4112010058,天津市,天津市,本科,公办,天津工业大学(和平校区),117.192577,39.127744,e110dba71d9f3f6f45572606,和平区
238,70,96,天津工业大学,4112010058,天津市,天津市,本科,公办,天津工业大学(生命科学学院),117.115574,39.070972,010c54642a92d9e7f4eafc4f,西青区
239,70,96,天津工业大学,4112010058,天津市,天津市,本科,公办,天津工业大学纺织科学与工程学院,117.121038,39.071811,634afc2d120a3feaeee4a557,西青区
240,71,97,中国民航大学,4112010059,交通运输部（中国民用航空局）,天津市,本科,公办,中国民航大学,117.359072,39.113268,8114eb32af8932e72dfaa7ca,东丽区
241,71,97,中国民航大学,4112010059,交通运输部（中国民用航空局）,天津市,本科,公办,中国民航大学-北区,117.35737,39.118426,d5464cf8fa5f5856fca77893,东丽区
242,71,97,中国民航大学,4112010059,交通运输部（中国民用航空局）,天津市,本科,公办,中国民航大学-南区,117.359404,39.112796,745e06f7316eea662fb9083e,东丽区
243,71,97,中国民航大学,4112010059,交通运输部（中国民用航空局）,天津市,本科,公办,中国民航大学(宁河校区),117.467437,39.263962,afca5cc52730f19ffda778e0,宁河区
244,71,97,中国民航大学,4112010059,交通运输部（中国民用航空局）,天津市,本科,公办,中国民航大学-民航技术研究院,117.354483,39.117286,34e485080b78599fd8d89107,东丽区
245,72,98,天津理工大学,4112010060,天津市,天津市,本科,公办,天津理工大学,117.148097,39.066305,53cebd50d60f60602a02e1f9,西青区
246,72,98,天津理工大学,4112010060,天津市,天津市,本科,公办,天津理工大学-中环信息学院,117.025937,39.133121,f53a113dc81b55f8b04c492d,西青区
247,72,98,天津理工大学,4112010060,天津市,天津市,本科,公办,天津理工大学-海运学院,117.143686,39.070401,ed3f1793774a6b32b8bd632d,西青区
248,72,98,天津理工大学,4112010060,天津市,天津市,本科,公办,天津理工大学艺术学院,117.143959,39.065755,9db4f651ba6403a52d4733d4,西青区
249,72,98,天津理工大学,4112010060,天津市,天津市,本科,公办,天津理工大学-管理学院,117.143393,39.067285,ad8ee466b94b4f4429fc4838,西青区
250,73,99,天津农学院,4112010061,天津市,天津市,本科,公办,天津农学院,117.107553,39.098285,9b4b4524c731e3c00d3dda6d,西青区
251,73,99,天津农学院,4112010061,天津市,天津市,本科,公办,天津农学院(西校区),116.981518,39.167527,b3aa435d940c4c0a157643f9,西青区
252,73,99,天津农学院,4112010061,天津市,天津市,本科,公办,天津农学院(蓟州校区),117.522902,40.026753,762eb775d4bb5c631d580069,蓟州区
253,74,100,天津医科大学,4112010062,天津市,天津市,本科,公办,天津医科大学(气象台校区),117.191328,39.112727,4307550337d43a733b221c4d,和平区
254,74,100,天津医科大学,4112010062,天津市,天津市,本科,公办,天津医科大学(广东路校区),117.220402,39.117406,b3e3824b4a2778140f0e6b87,河西区
255,74,100,天津医科大学,4112010062,天津市,天津市,本科,公办,天津医科大学(静海校区),116.930096,38.931726,144dee3e5587783fc17da248,静海区
256,74,100,天津医科大学,4112010062,天津市,天津市,本科,公办,天津医科大学临床医学院,117.469996,38.873134,cde9e2c7f6248ab5e81e9720,滨海新区
257,74,100,天津医科大学,4112010062,天津市,天津市,本科,公办,天津医科大学朱宪彝纪念医院(代谢病医院),117.117148,39.212615,6a3e18e78ac6f78208f5eb13,北辰区
258,74,100,天津医科大学,4112010062,天津市,天津市,本科,公办,天津医科大学总医院(空港医院),117.424812,39.158497,03a033b480338d3054bfff50,东丽区
259,75,101,天津中医药大学,4112010063,天津市,天津市,本科,公办,天津中医药大学(新校区),117.077635,38.958945,bd4ad85e3cd6861786420e5f,静海区
260,75,101,天津中医药大学,4112010063,天津市,天津市,本科,公办,天津中医药大学第一附属医院(北院区),117.171043,39.121187,c7eca12bd21b2f2ee115f95d,南开区
261,75,101,天津中医药大学,4112010063,天津市,天津市,本科,公办,天津中医药大学(中院),117.175961,39.121846,f6afe857ba45120e3be4a6f0,南开区
262,75,101,天津中医药大学,4112010063,天津市,天津市,本科,公办,天津中医药大学新校区,117.070588,38.962479,ef0d4197ca79051f79b55c81,静海区
263,75,101,天津中医药大学,4112010063,天津市,天津市,本科,公办,天津中医药大学新校区,117.070746,38.962426,f6cea5f91a6f592bb6f42f7c,静海区
264,75,101,天津中医药大学,4112010063,天津市,天津市,本科,公办,天津中医药大学针灸学院(滨海新区分部),117.666235,39.05105,45e90e705ccb3265902ca33f,滨海新区
265,76,102,天津师范大学,4112010065,天津市,天津市,本科,公办,天津师范大学,117.132025,39.069342,2e7e659340f1c018e5e965c5,西青区
266,76,102,天津师范大学,4112010065,天津市,天津市,本科,公办,天津师范大学(八里台校区),117.189388,39.105836,0c1c96e93e050fff0782c268,河西区
267,76,102,天津师范大学,4112010065,天津市,天津市,本科,公办,天津师范大学津沽学院,117.13068,39.061631,b9033b5269e645fc40ab9a5f,西青区
268,76,102,天津师范大学,4112010065,天津市,天津市,本科,公办,天津师范大学高职学院,117.181457,39.123606,631c41571af2e26231f71dec,南开区
269,76,102,天津师范大学,4112010065,天津市,天津市,本科,公办,天津师范大学附属实验中学,117.150391,39.087411,1f4eca907fff62c6f42310fa,南开区
270,77,103,天津职业技术师范大学,4112010066,天津市,天津市,本科,公办,天津职业技术师范大学,117.302938,39.064979,f2405c89493da90e9de32147,津南区
271,77,103,天津职业技术师范大学,4112010066,天津市,天津市,本科,公办,天津职业技术师范大学-西区,117.299484,39.06789,6ae4640f0c5277be2dfaa7ec,津南区
272,77,103,天津职业技术师范大学,4112010066,天津市,天津市,本科,公办,天津职业技术师范大学-东区,117.306603,39.061673,44207646c7d86f6adfee8ba7,津南区
273,77,103,天津职业技术师范大学,4112010066,天津市,天津市,本科,公办,天津职业技术师范大学-理学院,117.304219,39.064425,4cff1edef3262b29b75f1efe,津南区
274,77,103,天津职业技术师范大学,4112010066,天津市,天津市,本科,公办,天津职业技术师范大学-附属高级技术学校,117.297651,39.070374,a566863f7b6c8c7ab2077d5c,津南区
275,78,104,天津外国语大学,4112010068,天津市,天津市,本科,公办,天津外国语大学,117.216346,39.114374,b8668c0833f7706e0f0e6b83,河西区
276,78,104,天津外国语大学,4112010068,天津市,天津市,本科,公办,天津外国语大学滨海外事学院,117.474486,38.868116,4f724aff453a7c5971210b63,滨海新区
277,78,104,天津外国语大学,4112010068,天津市,天津市,本科,公办,天津外国语大学-逸夫教学楼(马场道校区),117.21708,39.113406,0e2d60e504565218bd484250,河西区
278,78,104,天津外国语大学,4112010068,天津市,天津市,本科,公办,天津外国语大学附属滨海外国语学校(高中部),117.749437,39.119283,72448bffd526fb9ec51b75a0,滨海新区
279,78,104,天津外国语大学,4112010068,天津市,天津市,本科,公办,天津外国语大学附属外国语学校,117.203131,39.175746,96b672aabc286474cf04efa5,河北区
280,78,104,天津外国语大学,4112010068,天津市,天津市,本科,公办,天津外国语大学附属北辰光华外国语学校,117.198066,39.320522,e6a81821e2b6e2ed4354d7fe,北辰区
281,78,104,天津外国语大学,4112010068,天津市,天津市,本科,公办,天津外国语大学马场道校区-继续教育学院,117.216252,39.114258,3043cae1ff37b19a364aae15,河西区
282,79,105,天津商业大学,4112010069,天津市,天津市,本科,公办,天津商业大学,117.131361,39.187459,9e7759a686cbfdad0bccdd10,北辰区
283,79,105,天津商业大学,4112010069,天津市,天津市,本科,公办,天津商业大学宝德学院,117.099403,39.097887,a2a4fe28acde739ab42655ed,西青区
284,79,105,天津商业大学,4112010069,天津市,天津市,本科,公办,天津商业大学(南院),117.143981,39.159658,0523a1413e7f801cb23c81d5,红桥区
285,80,106,天津财经大学,4112010070,天津市,天津市,本科,公办,天津财经大学,117.284786,39.067009,3a0a78bd685fdefb63180938,河西区
286,80,106,天津财经大学,4112010070,天津市,天津市,本科,公办,天津财经大学(马场道校区),117.213347,39.114443,55fa2c0b1e6cd62c1ce9993b,河西区
287,80,106,天津财经大学,4112010070,天津市,天津市,本科,公办,天津财经大学珠江学院,117.412575,39.557157,b31ce09b72c2898271210bb4,宝坻区
288,81,107,天津体育学院,4112010071,天津市,天津市,本科,公办,天津体育学院(新校区),117.066181,38.958815,7666852232adf8e21c38946d,静海区
289,81,107,天津体育学院,4112010071,天津市,天津市,本科,公办,天津体育学院新校区,117.071279,38.957143,0506382d0ff41b9cc4f50ddf,静海区
290,82,108,天津音乐学院,4112010072,天津市,天津市,本科,公办,天津音乐学院(南校区),117.238067,39.123098,925c550fadb02cb35a3ac85b,河东区
291,82,108,天津音乐学院,4112010072,天津市,天津市,本科,公办,天津音乐学院(北院学生宿舍),117.236192,39.129243,665801454837d234a8175a4d,河东区
292,82,108,天津音乐学院,4112010072,天津市,天津市,本科,公办,天津音乐学院附属中等音乐学校,117.232982,39.12591,b703e96bf36f66fb8f1a8951,河东区
293,83,109,天津美术学院,4112010073,天津市,天津市,本科,公办,天津美术学院,117.200742,39.15907,9cfb2865726cbacbbda24076,河北区
294,83,109,天津美术学院,4112010073,天津市,天津市,本科,公办,天津美术学院(北校区),117.223776,39.189241,2ba331508e35260381a12e60,河北区
295,83,109,天津美术学院,4112010073,天津市,天津市,本科,公办,天津美术学院-南院,117.199719,39.158139,2848ffd622335e0e49cc4ab3,河北区
296,84,110,天津城建大学,4112010792,天津市,天津市,本科,公办,天津城建大学,117.101884,39.101033,2ad32cc34300f98e9d95def8,西青区
297,84,110,天津城建大学,4112010792,天津市,天津市,本科,公办,天津城建大学-建筑学院,117.104049,39.103073,96ff42a8166f04cdf8dc85ab,西青区
298,86,112,天津中德应用技术大学,4112012105,天津市,天津市,本科,公办,天津中德应用技术大学,117.392755,39.01727,fe31ae5a4f5e97c2f4e73b88,津南区
299,87,113,天津外国语大学滨海外事学院,4112013658,天津市教委,天津市,本科,民办,天津外国语大学滨海外事学院,117.474486,38.868116,4f724aff453a7c5971210b63,滨海新区
300,87,113,天津外国语大学滨海外事学院,4112013658,天津市教委,天津市,本科,民办,天津外国语大学滨海外事学院-国际商学院,117.475174,38.865735,6b36f9b7f696b1206ca3ccd9,滨海新区
301,88,114,天津传媒学院,4112013659,天津市教委,天津市,本科,民办,天津传媒学院,117.275781,40.051307,28f9d8379cfade442d47339f,蓟州区
302,89,115,天津商业大学宝德学院,4112013660,天津市教委,天津市,本科,民办,天津商业大学宝德学院,117.099403,39.097887,a2a4fe28acde739ab42655ed,西青区
303,90,116,天津医科大学临床医学院,4112013661,天津市教委,天津市,本科,民办,天津医科大学临床医学院,117.469996,38.873134,cde9e2c7f6248ab5e81e9720,滨海新区
304,90,116,天津医科大学临床医学院,4112013661,天津市教委,天津市,本科,民办,天津医科大学临床医学院,117.468406,38.874003,fc5ca00dc6dcfef8cd04efce,滨海新区
305,90,116,天津医科大学临床医学院,4112013661,天津市教委,天津市,本科,民办,天津医科大学临床医学院,117.468514,38.874007,08ae611477419d78d4851fc7,滨海新区
306,91,117,南开大学滨海学院,4112013663,天津市教委,天津市,本科,民办,南开大学滨海学院,117.456076,38.868211,e85e252703deaa5295f08c20,滨海新区
307,91,117,南开大学滨海学院,4112013663,天津市教委,天津市,本科,民办,南开大学滨海学院第三教学楼-西南门(南开大学滨海学院社区卫生服务站南),117.457143,38.867824,46926f086b4c441e07fef580,滨海新区
308,92,118,天津师范大学津沽学院,4112013896,天津市教委,天津市,本科,民办,天津师范大学津沽学院,117.13068,39.061631,b9033b5269e645fc40ab9a5f,西青区
309,94,120,北京科技大学天津学院,4112013898,天津市教委,天津市,本科,民办,北京科技大学天津学院,117.395765,39.550329,8e531fcfcb6376e0ca29158b,宝坻区
310,94,120,北京科技大学天津学院,4112013898,天津市教委,天津市,本科,民办,北京科技大学天津学院,117.395705,39.550511,e6a5b581bf22782c00ec01e4,宝坻区
311,95,121,天津仁爱学院,4112014038,天津市教委,天津市,本科,民办,天津仁爱学院,117.163406,38.891238,cbaa00c80baa1fb7d3ff23b2,静海区
312,96,122,天津财经大学珠江学院,4112014087,天津市教委,天津市,本科,民办,天津财经大学珠江学院,117.412575,39.557157,b31ce09b72c2898271210bb4,宝坻区
313,97,149,河北大学,4113010075,河北省,保定市,本科,公办,河北大学,115.52262,38.876199,a99fa9faa8ab85502afc4893,莲池区
314,97,149,河北大学,4113010075,河北省,保定市,本科,公办,河北大学(七一路校区),115.571228,38.886396,ecdc6755636f679957bfffd8,莲池区
315,97,149,河北大学,4113010075,河北省,保定市,本科,公办,河北大学-北院,115.523579,38.878724,34f68ab00a6c410a8f55ec38,莲池区
316,97,149,河北大学,4113010075,河北省,保定市,本科,公办,河北大学(裕华路校区),115.526116,38.8574,b33e56961885cad128201a7f,莲池区
317,97,149,河北大学,4113010075,河北省,保定市,本科,公办,河北大学,115.522301,38.876978,c7d12ef0a7cab0a1c9e33cd5,莲池区
318,98,150,河北工程大学,4113010076,河北省,邯郸市,本科,公办,河北工程大学(新校区),114.611061,36.662263,3645229c8a9e3a266c4760e4,丛台区
319,98,150,河北工程大学,4113010076,河北省,邯郸市,本科,公办,河北工程大学科信学院,114.515134,36.577829,2455905f21aaae3657bfff68,邯山区
320,98,150,河北工程大学,4113010076,河北省,邯郸市,本科,公办,河北工程大学(新校区南门),114.605209,36.655724,b9af30d183fbe93a704b8789,丛台区
321,98,150,河北工程大学,4113010076,河北省,邯郸市,本科,公办,河北工程大学-医学院,114.611001,36.662208,0a1d0368419f3bd42202203b,丛台区
322,98,150,河北工程大学,4113010076,河北省,邯郸市,本科,公办,河北工程大学(新校区)-水利水电学院,114.607588,36.663481,bab324060c4f69cba8f0cdac,丛台区
323,98,150,河北工程大学,4113010076,河北省,邯郸市,本科,公办,河北工程大学数理学院,114.607191,36.662308,4c23571f519fab0814c8f6d4,丛台区
324,98,150,河北工程大学,4113010076,河北省,邯郸市,本科,公办,河北工程大学-文法学院,114.598389,36.660642,1d184b58e838c8c630f71d3a,丛台区
325,98,150,河北工程大学,4113010076,河北省,邯郸市,本科,公办,河北工程大学(新校区东门),114.612414,36.659748,a37d412a962be54f0482c241,丛台区
326,99,151,河北地质大学,4113010077,河北省,石家庄市,本科,公办,河北地质大学,114.556092,38.025828,a378cc79560734297bf79614,裕华区
327,99,151,河北地质大学,4113010077,河北省,石家庄市,本科,公办,河北地质大学(北校区),114.440872,38.096207,22e11407863bfccad5b74ec5,新华区
328,99,151,河北地质大学,4113010077,河北省,石家庄市,本科,公办,河北地质大学(育才校区),114.534625,38.026577,9ad6511805eaf2d716948e24,裕华区
329,99,151,河北地质大学,4113010077,河北省,石家庄市,本科,公办,河北地质大学华信学院,114.778222,38.337794,0a9c06352c21d7b8f6c59c2e,新乐市
330,99,151,河北地质大学,4113010077,河北省,石家庄市,本科,公办,河北地质大学-地质学院,114.55617,38.02658,ec8ba400dd50dc531e580065,裕华区
331,100,152,河北工业大学,4113010080,河北省,天津市,本科,公办,河北工业大学(北辰校区),117.065012,39.244095,6b58e78ce9b53fc9ce04efe1,北辰区
332,100,152,河北工业大学,4113010080,河北省,天津市,本科,公办,河北工业大学(红桥校区),117.173021,39.184685,be54cde968897c4179f796ae,红桥区
333,100,152,河北工业大学,4113010080,河北省,天津市,本科,公办,河北工业大学红桥校区(南院),117.17628,39.178847,fd2520b66b20b15a0d0e6bd9,红桥区
334,100,152,河北工业大学,4113010080,河北省,天津市,本科,公办,河北工业大学(红桥校区)-东院,117.181663,39.184756,8d095439a1123d1d2bb97cf1,红桥区
335,101,153,华北理工大学,4113010081,河北省,唐山市,本科,公办,华北理工大学,118.59931,39.21084,d05b348b096cb1dcbe48420e,曹妃甸区
336,101,153,华北理工大学,4113010081,河北省,唐山市,本科,公办,华北理工大学,118.59873,39.20325,269bc6473dd670abb42655cb,曹妃甸区
337,101,153,华北理工大学,4113010081,河北省,唐山市,本科,公办,华北理工大学轻工学院(丰润校区),118.177289,39.812732,053cdae0a667618971210bbe,丰润区
338,101,153,华北理工大学,4113010081,河北省,唐山市,本科,公办,华北理工大学迁安学院,118.701566,39.98691,ac52d4cbe511e8ed7dc87671,迁安市
339,101,153,华北理工大学,4113010081,河北省,唐山市,本科,公办,华北理工大学材料科学与工程学院,118.604035,39.217048,912274f064ae412c8936ee2d,曹妃甸区
340,101,153,华北理工大学,4113010081,河北省,唐山市,本科,公办,华北理工大学人文法律学院,118.603837,39.205333,bd39362f686bd49840afe61a,曹妃甸区
341,102,154,河北科技大学,4113010082,河北省,石家庄市,本科,公办,河北科技大学,114.528652,37.984026,5c56edd6db9bd55aa1d2306a,裕华区
342,102,154,河北科技大学,4113010082,河北省,石家庄市,本科,公办,河北科技大学电气工程学院,114.530671,37.980924,61071e00fa31ca237dc87679,裕华区
343,102,154,河北科技大学,4113010082,河北省,石家庄市,本科,公办,河北科技大学家属院,114.465002,38.058762,d594b4a0ae802ec514b54b4d,新华区
344,103,155,河北建筑工程学院,4113010084,河北省,张家口市,本科,公办,河北建筑工程学院,114.90381,40.761555,9f97b1c5cb2bfb05b64f54de,桥东区
345,103,155,河北建筑工程学院,4113010084,河北省,张家口市,本科,公办,河北建筑工程学院建筑设计研究院,114.904774,40.829646,7049b07e921d08eb11882404,桥东区
346,103,155,河北建筑工程学院,4113010084,河北省,张家口市,本科,公办,河北建筑工程学院-东家属院,114.912377,40.826775,0e66f30ceac8408d97ca0758,桥东区
347,103,155,河北建筑工程学院,4113010084,河北省,张家口市,本科,公办,河北建筑工程学院-中家属院,114.904725,40.830194,4fc110efcf3be7f1eb1e9777,桥东区
348,104,156,河北水利电力学院,4113010085,河北省,沧州市,本科,公办,河北水利电力学院,116.811572,38.301061,d3401490ae060aeba2a934fc,运河区
349,104,156,河北水利电力学院,4113010085,河北省,沧州市,本科,公办,河北水利电力学院第四教学楼-B区,116.812233,38.300603,29b1a3b2f11af5a738e4a623,运河区
350,105,157,河北农业大学,4113010086,河北省,保定市,本科,公办,河北农业大学,115.489891,38.855841,999b836d6d1d87bf2fe67b37,莲池区
351,105,157,河北农业大学,4113010086,河北省,保定市,本科,公办,河北农业大学(西校区),115.452319,38.833464,ab2c86b9e315d34f8bfc0653,竞秀区
352,105,157,河北农业大学,4113010086,河北省,保定市,本科,公办,河北农业大学,115.487075,38.856858,57af594a8d1788696040a957,莲池区
353,105,157,河北农业大学,4113010086,河北省,保定市,本科,公办,河北农业大学(西校区)-经济管理学院,115.459279,38.833412,8cc5d043da838d9bcafa5f40,莲池区
354,105,157,河北农业大学,4113010086,河北省,保定市,本科,公办,河北农业大学(西校区)-人文社会科学学院,115.458642,38.833659,035eba3454b70e2007026fcd,莲池区
355,105,157,河北农业大学,4113010086,河北省,保定市,本科,公办,河北农业大学-研究生学院,115.492829,38.857112,18b4b8e307829264a2a93409,莲池区
356,106,158,河北医科大学,4113010089,河北省,石家庄市,本科,公办,河北医科大学,114.541759,38.05175,cb51dc9423098a994054d739,长安区
357,106,158,河北医科大学,4113010089,河北省,石家庄市,本科,公办,河北医科大学(建华校区),114.555767,38.019403,73546a86e5417119a1046420,裕华区
358,106,158,河北医科大学,4113010089,河北省,石家庄市,本科,公办,河北医科大学-临床学院,114.555165,38.022413,d36db9a9cc5bc6d0f8f0cb21,裕华区
359,107,159,河北北方学院,4113010092,河北省,张家口市,本科,公办,河北北方学院,114.885358,40.77713,355bc6435d0c145d931fc9f4,桥东区
360,107,159,河北北方学院,4113010092,河北省,张家口市,本科,公办,河北北方学院(东校区),114.897895,40.77845,5f8dac56e2f942f73062123d,桥东区
361,107,159,河北北方学院,4113010092,河北省,张家口市,本科,公办,河北北方学院(北校区),114.898162,40.835764,f4a2c4d02706160458f6bede,桥西区
362,107,159,河北北方学院,4113010092,河北省,张家口市,本科,公办,河北北方学院(南校区),114.930446,40.675447,161a0ed2ea4b1d505cd4fe46,桥西区
363,108,160,承德医学院,4113010093,河北省,承德市,本科,公办,承德医学院,117.963582,41.039134,fa01e9375bc04149764ff1a8,双桥区
364,108,160,承德医学院,4113010093,河北省,承德市,本科,公办,承德医学院附属医院(南院区),117.942293,40.89295,abc97aca9b3cc50f5bf6be4e,双桥区
365,108,160,承德医学院,4113010093,河北省,承德市,本科,公办,承德医学院,117.958499,41.035216,c7a290555a480323b64f54a2,双桥区
366,108,160,承德医学院,4113010093,河北省,承德市,本科,公办,承德医学院,117.958608,41.035126,fc96fc68924beb5fc356acb0,双桥区
367,108,160,承德医学院,4113010093,河北省,承德市,本科,公办,承德医学院,117.958543,41.03518,01972a4d96b90c9d2a06ce5b,双桥区
368,108,160,承德医学院,4113010093,河北省,承德市,本科,公办,承德医学院分院,117.958764,40.958651,43edfe929b80596b6240a935,双桥区
369,109,161,河北师范大学,4113010094,河北省,石家庄市,本科,公办,河北师范大学,114.526421,38.003617,42362707d679c71f5cbe86c3,裕华区
370,109,161,河北师范大学,4113010094,河北省,石家庄市,本科,公办,河北师范大学汇华学院,114.470428,38.012563,9876ab2fb3e6a6294f3a5938,桥西区
371,109,161,河北师范大学,4113010094,河北省,石家庄市,本科,公办,河北师范大学附属实验中学,114.463969,38.016516,5c5aa23d9b747f492d4733be,桥西区
372,109,161,河北师范大学,4113010094,河北省,石家庄市,本科,公办,河北师范大学-职业技术学院,114.524956,38.005024,f1dc762df6b1a502100daa0a,裕华区
373,109,161,河北师范大学,4113010094,河北省,石家庄市,本科,公办,河北师范大学南院,114.540206,38.039571,1f802a13c0065bf1f60e770f,裕华区
374,109,161,河北师范大学,4113010094,河北省,石家庄市,本科,公办,河北师范大学-商学院,114.528217,38.003767,20b7cfd4bf25539ba2a9347a,裕华区
375,109,161,河北师范大学,4113010094,河北省,石家庄市,本科,公办,河北师范大学-生命科学学院,114.529308,38.004844,3674bffbede775f0c17da2d7,裕华区
376,110,162,保定学院,4113010096,河北省,保定市,本科,公办,保定学院,115.585285,38.887037,72e57fd76c6e1dacf8dc8563,莲池区
377,110,162,保定学院,4113010096,河北省,保定市,本科,公办,保定学院,115.58202,38.881624,131196e7ed8dddaba0acc472,莲池区
378,110,162,保定学院,4113010096,河北省,保定市,本科,公办,保定学院,115.580392,38.881945,fdced8b24191968fb21e360e,莲池区
379,110,162,保定学院,4113010096,河北省,保定市,本科,公办,保定学院,115.58091,38.881843,e3ed24b5217ab79b5fd4fe18,莲池区
380,110,162,保定学院,4113010096,河北省,保定市,本科,公办,保定学院-文学院,115.581377,38.884574,c29c6ef84aa09ef08505bf1c,莲池区
381,110,162,保定学院,4113010096,河北省,保定市,本科,公办,保定学院-经济管理学院,115.583308,38.884672,769511d39d7059270482c2b0,莲池区
382,111,163,河北民族师范学院,4113010098,河北省,承德市,本科,公办,河北民族师范学院,117.964993,40.898723,4085afdd53cf86ef43ab9aa3,双桥区
383,111,163,河北民族师范学院,4113010098,河北省,承德市,本科,公办,河北民族师范学院,117.965692,40.902259,6e5265e5be5544fc5c0d025e,双桥区
384,111,163,河北民族师范学院,4113010098,河北省,承德市,本科,公办,河北民族师范学院,117.965204,40.902537,b6453da57ef0d8f5d0ff23e8,双桥区
385,111,163,河北民族师范学院,4113010098,河北省,承德市,本科,公办,河北民族师范学院,117.966179,40.901981,c220839383e3e3e5725e808a,双桥区
386,112,164,唐山师范学院,4113010099,河北省,唐山市,本科,公办,唐山师范学院(大学道校区),118.180051,39.679478,c67cf4b73db3f38749fd3f06,路北区
387,112,164,唐山师范学院,4113010099,河北省,唐山市,本科,公办,唐山师范学院(学院路校区),118.166221,39.642382,c165340510b23604aa175aba,路北区
388,112,164,唐山师范学院,4113010099,河北省,唐山市,本科,公办,唐山师范学院(北院),118.178982,39.682899,95cddf227cc64c2775e5b638,路北区
389,113,165,廊坊师范学院,4113010100,河北省,廊坊市,本科,公办,廊坊师范学院,116.679182,39.532873,7c1371eea79cb6bffbf0cb38,安次区
390,113,165,廊坊师范学院,4113010100,河北省,廊坊市,本科,公办,廊坊师范学院(西校区),116.440861,39.427588,be24d20f6561d50c00ec0143,固安县
391,113,165,廊坊师范学院,4113010100,河北省,廊坊市,本科,公办,廊坊师范学院,116.43962,39.425363,898a55b100e0593fd12dd602,固安县
392,113,165,廊坊师范学院,4113010100,河北省,廊坊市,本科,公办,廊坊师范学院,116.440057,39.425316,855a216fb513762617c8f659,固安县
393,113,165,廊坊师范学院,4113010100,河北省,廊坊市,本科,公办,廊坊师范学院,116.440495,39.42527,87d5c15894b4951d46e274d5,固安县
394,114,166,衡水学院,4113010101,河北省,衡水市,本科,公办,衡水学院,115.668092,37.748628,e3e2cd9d7663a5e3c7f50d26,桃城区
395,114,166,衡水学院,4113010101,河北省,衡水市,本科,公办,衡水学院,115.668982,37.751681,c0bf0c5bfc958d10e812e4a5,桃城区
396,114,166,衡水学院,4113010101,河北省,衡水市,本科,公办,衡水学院-西区,115.664049,37.749872,21f725654e8dc1660bf5eb20,桃城区
397,114,166,衡水学院,4113010101,河北省,衡水市,本科,公办,衡水学院,115.670809,37.750267,7e9daa3c808d5f936f3e1b2b,桃城区
398,114,166,衡水学院,4113010101,河北省,衡水市,本科,公办,衡水学院(滨湖校区),115.685773,37.615984,df4dcb36d6cbd6256c4760c0,冀州区
399,115,167,石家庄学院,4113010102,河北省,石家庄市,本科,公办,石家庄学院,114.606599,38.02581,d271057c0a3a02c049fc8d03,裕华区
400,115,167,石家庄学院,4113010102,河北省,石家庄市,本科,公办,石家庄学院(北校区),114.611489,38.041201,07f3c8b5bc7938606240a908,裕华区
401,115,167,石家庄学院,4113010102,河北省,石家庄市,本科,公办,石家庄学院,114.609363,38.026597,0da676a56b3d6c66eaf85346,裕华区
402,115,167,石家庄学院,4113010102,河北省,石家庄市,本科,公办,石家庄学院(南校区)-文学与传媒学院,114.606539,38.026098,ec7373929ce8228ed12dd622,裕华区
403,116,168,邯郸学院,4113010103,河北省,邯郸市,本科,公办,邯郸学院,114.516364,36.583567,f3c2373c4d293e52d22dd666,邯山区
404,116,168,邯郸学院,4113010103,河北省,邯郸市,本科,公办,邯郸学院(西校区),114.505358,36.574318,46102646daf67bd982288a93,邯山区
405,116,168,邯郸学院,4113010103,河北省,邯郸市,本科,公办,邯郸学院,114.514729,36.581569,ca2c3b035884cfc5c7f025e1,邯山区
406,116,168,邯郸学院,4113010103,河北省,邯郸市,本科,公办,邯郸学院西校区,114.511334,36.578315,c2930ce4fd7545fdc6effb6b,邯山区
407,116,168,邯郸学院,4113010103,河北省,邯郸市,本科,公办,邯郸学院,115.158387,36.29446,925c550f6580e4b25a3ac86b,大名县
408,117,169,邢台学院,4113010104,河北省,邢台市,本科,公办,邢台学院,114.51114,37.095344,eda5e8c8297d8cdcbda24055,襄都区
409,117,169,邢台学院,4113010104,河北省,邢台市,本科,公办,邢台学院,114.511387,37.098015,04059038be95eaa9b11e36fa,襄都区
410,117,169,邢台学院,4113010104,河北省,邢台市,本科,公办,邢台学院-南区,114.507609,37.097363,4a47fefcb457ef235d0d0273,襄都区
411,117,169,邢台学院,4113010104,河北省,邢台市,本科,公办,邢台学院家属院,114.514975,37.093666,04b8d4183491f6085cbe867a,襄都区
412,118,170,沧州师范学院,4113010105,河北省,沧州市,本科,公办,沧州师范学院,116.790243,38.291282,c43b11720d1e0dc6f5c59c26,运河区
413,118,170,沧州师范学院,4113010105,河北省,沧州市,本科,公办,沧州师范学院附属中学,116.807617,38.304757,90f79b5501854d9717b54b0e,运河区
414,119,171,石家庄铁道大学,4113010107,河北省,石家庄市,本科,公办,石家庄铁道大学,114.515029,38.089425,e4c39286fe1b45567369d31f,长安区
415,119,171,石家庄铁道大学,4113010107,河北省,石家庄市,本科,公办,石家庄铁道大学四方学院(南校区),114.412919,37.889637,11762e604deb7070901fc9f3,元氏县
416,120,172,燕山大学,4113010216,河北省,秦皇岛市,本科,公办,燕山大学(东校区),119.546011,39.913048,f696f3c23b2c70961a11d58c,海港区
417,120,172,燕山大学,4113010216,河北省,秦皇岛市,本科,公办,燕山大学(西校区),119.530532,39.91727,f0ead25e345b91c249fc8dcd,海港区
418,120,172,燕山大学,4113010216,河北省,秦皇岛市,本科,公办,燕山大学,119.548542,39.909431,4c0e7968d44b4871c16c14e6,海港区
419,120,172,燕山大学,4113010216,河北省,秦皇岛市,本科,公办,燕山大学-里仁学院,119.533446,39.912483,3a0a78bd3ee908fa62180986,海港区
420,120,172,燕山大学,4113010216,河北省,秦皇岛市,本科,公办,燕山大学,119.549409,39.909923,b742004537af5d742b11d195,海港区
421,120,172,燕山大学,4113010216,河北省,秦皇岛市,本科,公办,燕山大学,119.54795,39.909157,2f5832937ba0a689118824f6,海港区
422,120,172,燕山大学,4113010216,河北省,秦皇岛市,本科,公办,燕山大学,119.548388,39.909177,f4ffd36c3f3cdd44ad080fdb,海港区
423,121,173,河北科技师范学院,4113010798,河北省,秦皇岛市,本科,公办,河北科技师范学院,119.55473,39.918243,52819773ba348d638e7727c0,海港区
424,121,173,河北科技师范学院,4113010798,河北省,秦皇岛市,本科,公办,河北科技师范学院(开发区校区),119.531476,39.938158,93533e75928855098bf15d44,海港区
425,121,173,河北科技师范学院,4113010798,河北省,秦皇岛市,本科,公办,河北科技师范学院(昌黎校区),119.185952,39.714636,217c389aecc315a82fb17e85,昌黎县
426,121,173,河北科技师范学院,4113010798,河北省,秦皇岛市,本科,公办,河北科技师范学院欧美学院,119.540022,39.906714,0a81b836967ce706725e80ca,海港区
427,121,173,河北科技师范学院,4113010798,河北省,秦皇岛市,本科,公办,河北科技师范学院-艺术学院,119.5331,39.936609,4c5c9411c6405143a2d23045,海港区
428,121,173,河北科技师范学院,4113010798,河北省,秦皇岛市,本科,公办,河北科技师范学院(北b教学楼),119.554515,39.920493,49b1a047c80a9c3d02294f85,海港区
429,122,174,唐山学院,4113011033,河北省,唐山市,本科,公办,唐山学院(大学西道校区东院),118.173299,39.683935,9b7e7da67226d768a1d230b2,路北区
430,122,174,唐山学院,4113011033,河北省,唐山市,本科,公办,唐山学院(华岩北路),118.176727,39.664214,ffd6d40362626c8f17b54bd3,路北区
431,122,174,唐山学院,4113011033,河北省,唐山市,本科,公办,唐山学院,118.19854,39.645238,8ff38ada257c33f3cafa5f16,路北区
432,122,174,唐山学院,4113011033,河北省,唐山市,本科,公办,唐山学院,118.170514,39.681532,31c76d1086d8d534a1046489,路北区
433,122,174,唐山学院,4113011033,河北省,唐山市,本科,公办,唐山学院(文北后街校区),118.226254,39.626107,c474d454a51c3654d8d891a8,路南区
434,122,174,唐山学院,4113011033,河北省,唐山市,本科,公办,唐山学院大学西道校区(北院),118.166974,39.683202,651a9e60a40fbb65cf06a4b3,路北区
435,123,175,华北科技学院,4113011104,应急管理部,廊坊市,本科,公办,华北科技学院,116.810463,39.962737,591782adb1f4eac609b93a83,三河市
436,123,175,华北科技学院,4113011104,应急管理部,廊坊市,本科,公办,华北科技学院北院,116.81054,39.965346,1f03a09c6818ecff29fc48a6,三河市
437,123,175,华北科技学院,4113011104,应急管理部,廊坊市,本科,公办,华北科技学院(南校区),116.84475,39.944444,5bbbeee416723b9e49fd3fed,三河市
438,123,175,华北科技学院,4113011104,应急管理部,廊坊市,本科,公办,华北科技学院-南区,116.812766,39.957963,74bf098b32dd9d2a7402693a,三河市
439,123,175,华北科技学院,4113011104,应急管理部,廊坊市,本科,公办,华北科技学院,116.811287,39.958398,5dc1004736ae25ab441a32a6,三河市
440,123,175,华北科技学院,4113011104,应急管理部,廊坊市,本科,公办,华北科技学院,116.811293,39.958399,8c30c5535ce8f284ab059ded,三河市
441,124,176,中国人民警察大学,4113011105,公安部,廊坊市,本科,公办,中国人民警察大学,116.663969,39.538804,69984c4238a32a38c42ba1f6,安次区
442,125,177,河北体育学院,4113011236,河北省,石家庄市,本科,公办,河北体育学院,114.507182,38.1284,89fd4ea3b88c8647e5e96567,长安区
443,125,177,河北体育学院,4113011236,河北省,石家庄市,本科,公办,河北体育学院(正定新区校区),114.650382,38.129919,1cdd3b7e1582fe5275e5b654,正定县
444,125,177,河北体育学院,4113011236,河北省,石家庄市,本科,公办,河北体育学院(东校区),114.544357,38.046769,a43766d503281b71ddee8b43,长安区
445,126,178,河北金融学院,4113011420,河北省,保定市,本科,公办,河北金融学院,115.505713,38.92512,b388f9fdc59a0840b35c6aeb,莲池区
446,127,179,北华航天工业学院,4113011629,河北省,廊坊市,本科,公办,北华航天工业学院-计算机学院,116.745027,39.532079,32e6a8b47d84f3a036b06ca1,广阳区
447,128,180,防灾科技学院,4113011775,中国地震局,廊坊市,本科,公办,防灾科技学院(北区),116.806272,39.969312,c250fa05426a2123c27da2ea,三河市
448,128,180,防灾科技学院,4113011775,中国地震局,廊坊市,本科,公办,防灾科技学院(南区),116.807168,39.961127,71bd2cc9ab2f94973913fd8c,三河市
449,128,180,防灾科技学院,4113011775,中国地震局,廊坊市,本科,公办,防灾科技学院,116.805695,39.956943,32b5e0c5c50e46b729fc488c,三河市
450,128,180,防灾科技学院,4113011775,中国地震局,廊坊市,本科,公办,防灾科技学院,116.805646,39.957074,a966a8c7a012b9364c6d46d4,三河市
451,128,180,防灾科技学院,4113011775,中国地震局,廊坊市,本科,公办,防灾科技学院,116.805695,39.956943,bfd0ec987e8882bce81e97e5,三河市
452,128,180,防灾科技学院,4113011775,中国地震局,廊坊市,本科,公办,防灾科技学院,116.805646,39.957074,ae03ddafb684e0776140a943,三河市
453,129,181,河北经贸大学,4113011832,河北省,石家庄市,本科,公办,河北经贸大学,114.499536,38.141249,917e98092f9aa6e32d473316,正定县
454,129,181,河北经贸大学,4113011832,河北省,石家庄市,本科,公办,河北经贸大学经济管理学院,114.464129,38.012633,1ce54c66675bc72b364aaeb5,桥西区
455,129,181,河北经贸大学,4113011832,河北省,石家庄市,本科,公办,河北经贸大学,114.463741,38.014276,19135a589fdc0a50b5f42fa3,桥西区
456,129,181,河北经贸大学,4113011832,河北省,石家庄市,本科,公办,河北经贸大学,114.494405,38.140321,05a8c95c01e6ffba260bd0aa,新华区
457,129,181,河北经贸大学,4113011832,河北省,石家庄市,本科,公办,河北经贸大学-旅游学院,114.49931,38.137626,5f941c65db3c593549fc8d61,新华区
458,130,182,中央司法警官学院,4113011903,司法部,保定市,本科,公办,中央司法警官学院,115.521249,38.887012,54435dd38c0491a59e95de7e,莲池区
459,130,182,中央司法警官学院,4113011903,司法部,保定市,本科,公办,中央司法警官学院-国家律师学院,115.520038,38.884316,6b64615bea2820095a3ac838,莲池区
460,131,183,河北传媒学院,4113012784,河北省教育厅,石家庄市,本科,民办,河北传媒学院(兴安校区),114.670816,37.912529,d5130ce8065e0a3e48cc4adb,栾城区
461,131,183,河北传媒学院,4113012784,河北省教育厅,石家庄市,本科,民办,河北传媒学院(警安校区),114.435674,38.102456,03b592ed7263699bcac3db89,新华区
462,131,183,河北传媒学院,4113012784,河北省教育厅,石家庄市,本科,民办,河北传媒学院(鹿泉校区),114.349365,38.171032,9ceb166d21b3fb6bc7f0259d,鹿泉区
463,131,183,河北传媒学院,4113012784,河北省教育厅,石家庄市,本科,民办,河北传媒学院新闻楼A区,114.671553,37.910234,3e2912074960f406eb1e9749,栾城区
464,131,183,河北传媒学院,4113012784,河北省教育厅,石家庄市,本科,民办,河北传媒学院影视艺术学院,114.671672,37.912919,966aad70c5fa06e00e3dda7d,栾城区
465,132,184,河北工程技术学院,4113012796,河北省教育厅,石家庄市,本科,民办,河北工程技术学院,114.473386,37.988065,b107a0f5f36c3db395031986,桥西区
466,132,184,河北工程技术学院,4113012796,河北省教育厅,石家庄市,本科,民办,河北工程技术学院-软件学院,114.472861,37.990123,abe54e5fa8c83e0e1df74d2e,桥西区
467,132,184,河北工程技术学院,4113012796,河北省教育厅,石家庄市,本科,民办,河北工程技术学院(北校区),114.468907,38.002722,8893a362cff035ff78f796f9,桥西区
468,133,185,河北美术学院,4113013075,河北省教育厅,石家庄市,本科,民办,河北美术学院(北校区),114.72302,38.351068,5ad9c2ae66094f796b49f3a2,新乐市
469,133,185,河北美术学院,4113013075,河北省教育厅,石家庄市,本科,民办,河北美术学院-北区,114.72321,38.35128,0dca892a3a2f9542902ca39d,新乐市
470,133,185,河北美术学院,4113013075,河北省教育厅,石家庄市,本科,民办,河北美术学院家属院,114.724518,38.352469,1e037ecda5cabebe40afe683,新乐市
471,135,187,河北外国语学院,4113013402,河北省教育厅,石家庄市,本科,民办,河北外国语学院,114.480438,37.901151,0a099637c5d9ffc1077ce84e,元氏县
472,135,187,河北外国语学院,4113013402,河北省教育厅,石家庄市,本科,民办,河北外国语学院,114.480374,37.901211,1d19556fb7a894897ab55cdd,元氏县
473,135,187,河北外国语学院,4113013402,河北省教育厅,石家庄市,本科,民办,河北外国语学院,114.480503,37.901091,44f28728fe3afc6f0f0a7034,元氏县
474,136,188,河北大学工商学院,4113013404,河北省教育厅,保定市,本科,民办,河北大学工商学院,115.571207,38.886258,1ea28ae7d40a5e784d5547a7,莲池区
475,137,189,华北理工大学轻工学院,4113013408,河北省教育厅,唐山市,本科,民办,华北理工大学轻工学院(丰润校区),118.177289,39.812732,053cdae0a667618971210bbe,丰润区
476,138,190,河北工业职业技术大学,4113016204,河北省,石家庄市,本科,公办,河北工业职业技术大学,114.467463,37.984297,e2c734e4727acc5d15a19072,桥西区
477,138,190,河北工业职业技术大学,4113016204,河北省,石家庄市,本科,公办,河北工业职业技术大学(北校区),114.467499,38.020642,7adae1252950c735c17da24e,桥西区
478,138,190,河北工业职业技术大学,4113016204,河北省,石家庄市,本科,公办,河北工业职业技术大学智能制造学院,114.464411,37.986444,0575779a05113ccce856faa4,鹿泉区
479,139,191,河北师范大学汇华学院,4113013411,河北省教育厅,石家庄市,本科,民办,河北师范大学汇华学院,114.470428,38.012563,9876ab2fb3e6a6294f3a5938,桥西区
480,139,191,河北师范大学汇华学院,4113013411,河北省教育厅,石家庄市,本科,民办,河北师范大学汇华学院(艺术学部),114.469052,38.011556,b576733d203a328ebfa822b0,桥西区
481,140,192,河北经贸大学经济管理学院,4113013414,河北省教育厅,石家庄市,本科,民办,河北经贸大学经济管理学院,114.464129,38.012633,1ce54c66675bc72b364aaeb5,桥西区
482,141,193,河北医科大学临床学院,4113013415,河北省教育厅,石家庄市,本科,民办,河北医科大学临床学院-南院,114.55654,38.020055,34e485084c469ee1d8d8913b,裕华区
483,141,193,河北医科大学临床学院,4113013415,河北省教育厅,石家庄市,本科,民办,河北医科大学临床学院南院基础医学院,114.555563,38.020638,70f0374e7faa7189ab059d41,裕华区
484,142,194,河北科技工程职业技术大学,4113016203,河北省,邢台市,本科,公办,河北科技工程职业技术大学,114.458623,37.091545,e116be5434ed387bc81b959c,信都区
485,143,195,河北工程大学科信学院,4113013578,河北省教育厅,邯郸市,本科,民办,河北工程大学科信学院,114.515134,36.577829,2455905f21aaae3657bfff68,邯山区
486,144,196,河北石油职业技术大学,4113016202,河北省,承德市,本科,公办,河北石油职业技术大学,117.969185,40.904239,a7c56ee0bc05deb3a2acc4bf,双桥区
487,146,198,石家庄铁道大学四方学院,4113013593,河北省教育厅,石家庄市,本科,民办,石家庄铁道大学四方学院(南校区),114.412919,37.889637,11762e604deb7070901fc9f3,元氏县
488,147,199,河北地质大学华信学院,4113013594,河北省教育厅,石家庄市,本科,民办,河北地质大学华信学院,114.778222,38.337794,0a9c06352c21d7b8f6c59c2e,新乐市
489,150,202,保定理工学院,4113013891,河北省教育厅,保定市,本科,民办,保定理工学院,115.491787,38.821286,7c5e480bab7682b4adb22a3e,莲池区
490,150,202,保定理工学院,4113013891,河北省教育厅,保定市,本科,民办,保定理工学院-工程技术学院,115.491715,38.821231,8fb6a4fc95d622462e4733cc,莲池区
491,150,202,保定理工学院,4113013891,河北省教育厅,保定市,本科,民办,保定理工学院,115.49153,38.824361,727290694dc5f9308605bf28,莲池区
492,150,202,保定理工学院,4113013891,河北省教育厅,保定市,本科,民办,保定理工学院-学生九舍(九号楼),115.492812,38.822109,131bc8e51e7518acd92f2881,莲池区
493,151,203,燕京理工学院,4113013895,河北省教育厅,廊坊市,本科,民办,燕京理工学院,116.811005,40.00617,a4110900152c645341d63e4f,三河市
494,151,203,燕京理工学院,4113013895,河北省教育厅,廊坊市,本科,民办,燕京理工学院,116.817375,40.006954,03525a87998062302b3a9fa9,三河市
495,152,204,北京中医药大学东方学院,4113013899,河北省教育厅,廊坊市,本科,民办,北京中医药大学东方学院西区,116.755173,39.597384,0a4f2586beb33d4bf8dc85ab,广阳区
496,153,205,沧州交通学院,4113014202,河北省教育厅,沧州市,本科,民办,沧州交通学院,117.32044,38.389979,bba873885811b4a0bca822f4,黄骅市
497,154,206,河北东方学院,4113014225,河北省教育厅,廊坊市,本科,民办,河北东方学院,116.75634,39.600794,aa0c1c62b84a47b06fc02c04,广阳区
498,154,206,河北东方学院,4113014225,河北省教育厅,廊坊市,本科,民办,河北东方学院,116.758579,39.60035,41fb5e9a4f6f596ad22dd6c0,广阳区
499,154,206,河北东方学院,4113014225,河北省教育厅,廊坊市,本科,民办,河北东方学院-C区,116.75292,39.620576,48a2d41def7e3d0f9ce32111,广阳区
500,155,207,河北中医学院,4113014432,河北省,石家庄市,本科,公办,河北中医学院家属院,114.462674,38.015537,6113ef77b27962148e77276e,桥西区
501,156,208,张家口学院,4113014458,河北省,张家口市,本科,公办,张家口学院,114.875113,40.849,09185c567a84965df1193752,桥西区
502,156,208,张家口学院,4113014458,河北省,张家口市,本科,公办,张家口学院,114.87675,40.847008,7d63a6820daee84c354aae9b,桥西区
503,156,208,张家口学院,4113014458,河北省,张家口市,本科,公办,张家口学院(明湖校区),114.861188,40.691493,b6e00ca1cac7a12c2dfaa769,桥西区
504,156,208,张家口学院,4113014458,河北省,张家口市,本科,公办,张家口学院,114.877264,40.846681,8923b163d058439df942b290,桥西区
505,156,208,张家口学院,4113014458,河北省,张家口市,本科,公办,张家口学院,114.876108,40.847417,a0f907b56c70b14fc9e33c04,桥西区
506,156,208,张家口学院,4113014458,河北省,张家口市,本科,公办,张家口学院南校区,114.859413,40.688511,d9f1d7e957b48f9c9fec2b9f,桥西区
507,157,209,河北环境工程学院,4213051721,河北省,秦皇岛市,本科,公办,河北环境工程学院,119.459776,39.874193,c316d5fd7472dfb995ca07a4,北戴河区
508,157,209,河北环境工程学院,4213051721,河北省,秦皇岛市,本科,公办,河北环境工程学院-综合教学区,119.459963,39.874425,64fbcfb379d73ba56fa3ccc9,北戴河区
509,157,209,河北环境工程学院,4213051721,河北省,秦皇岛市,本科,公办,河北环境工程学院北戴河校区(南门),119.528203,39.822953,6ee01020ac1287ef53e5c587,北戴河区
510,158,272,山西大学,4114010108,山西省,太原市,本科,公办,山西大学(坞城校区),112.593756,37.805857,b83640b88a77795cd42ce25f,小店区
511,158,272,山西大学,4114010108,山西省,太原市,本科,公办,山西大学,112.59094,37.809904,1d3ae7d53d125dbd09a8d400,小店区
512,158,272,山西大学,4114010108,山西省,太原市,本科,公办,山西大学,112.591091,37.81084,98701dd2c489db8482a12e67,小店区
513,158,272,山西大学,4114010108,山西省,太原市,本科,公办,山西大学,112.591105,37.810647,b95dd4cb65cce07fcd04efbf,小店区
514,159,273,太原科技大学,4114010109,山西省,太原市,本科,公办,太原科技大学(东校区),112.499391,37.881601,f757e6eea794b616260bd05e,万柏林区
515,160,274,中北大学,4114010110,山西省,太原市,本科,公办,中北大学,112.453582,38.02132,f1894c63907531acd618b7a9,尖草坪区
516,160,274,中北大学,4114010110,山西省,太原市,本科,公办,中北大学,112.449239,38.014332,894e8379d88f685208ccdd38,尖草坪区
517,160,274,中北大学,4114010110,山西省,太原市,本科,公办,中北大学艺术学院,112.457758,38.022332,067fb4e76fd2ea6f1fe999da,尖草坪区
518,160,274,中北大学,4114010110,山西省,太原市,本科,公办,中北大学(下客站),112.449319,38.014205,7f59cebc5bbf50a30bccdd81,尖草坪区
519,160,274,中北大学,4114010110,山西省,太原市,本科,公办,中北大学(下客站),112.449319,38.014205,21b3d5e94c77e65432f71d33,尖草坪区
520,160,274,中北大学,4114010110,山西省,太原市,本科,公办,中北大学(上客站),112.449232,38.014221,2c3f2c71c4f4bb9ff5c59cd4,尖草坪区
521,160,274,中北大学,4114010110,山西省,太原市,本科,公办,中北大学(上客站),112.449304,38.013983,678d0fe37ad6b1cfd72ce27b,尖草坪区
522,161,275,太原理工大学,4114010112,山西省,太原市,本科,公办,太原理工大学(迎西校区),112.528501,37.866621,4aaa583b3545ea10d92f2855,万柏林区
523,161,275,太原理工大学,4114010112,山西省,太原市,本科,公办,太原理工大学(虎峪校区),112.529803,37.859042,eb1a103e36162d820a5cb3a4,万柏林区
524,161,275,太原理工大学,4114010112,山西省,太原市,本科,公办,太原理工大学柏林校区,112.519186,37.865467,27b6a2c3efa67eaf25d2bb2c,万柏林区
525,161,275,太原理工大学,4114010112,山西省,太原市,本科,公办,太原理工大学-继续教育学院,112.519337,37.865937,a2f9ebcf66cb1298d0ff2317,万柏林区
526,161,275,太原理工大学,4114010112,山西省,太原市,本科,公办,太原理工大学-老干院,112.522378,37.86778,ff75bad83c9bfc98fd0eb0b1,万柏林区
527,161,275,太原理工大学,4114010112,山西省,太原市,本科,公办,太原理工大学-长风住宅小区,112.534216,37.833156,3da907f328f0c552b320a85f,万柏林区
528,161,275,太原理工大学,4114010112,山西省,太原市,本科,公办,太原理工大学继续教育学院,112.529178,37.862974,cf0b61e85af67e068d77273d,万柏林区
529,162,276,山西农业大学,4114010113,山西省,晋中市,本科,公办,山西农业大学(山西省农业科学院)太谷校区,112.590262,37.429983,06d2dffd52ea83f788f15d38,太谷区
530,162,276,山西农业大学,4114010113,山西省,晋中市,本科,公办,山西农业大学信息学院,112.579356,37.457115,fe939dc22b73b1874d776e97,太谷区
531,163,277,山西医科大学,4114010114,山西省,太原市,本科,公办,山西医科大学(迎泽校区),112.56077,37.856398,1bf85b25980c01a5a1a9345a,迎泽区
532,163,277,山西医科大学,4114010114,山西省,太原市,本科,公办,山西医科大学晋祠学院(太原校区),112.435446,37.692847,5211d219915e30597dc8765d,晋源区
533,163,277,山西医科大学,4114010114,山西省,太原市,本科,公办,山西医科大学-南家属院,112.559525,37.855052,76045b08f6176cec9d82ea3f,迎泽区
534,163,277,山西医科大学,4114010114,山西省,太原市,本科,公办,山西医科大学-职业技术学院,112.55917,37.855888,8ddcb1e5d19782c61ce999e3,迎泽区
535,163,277,山西医科大学,4114010114,山西省,太原市,本科,公办,山西医科大学-法医学院,112.559571,37.857897,85bc4caaf393aa6e72210b9e,迎泽区
536,163,277,山西医科大学,4114010114,山西省,太原市,本科,公办,山西医科大学第二医院(西院区),112.482013,37.863734,e65b6e694191787102897243,万柏林区
537,164,278,长治医学院,4114010117,山西省,长治市,本科,公办,长治医学院,113.12463,36.178657,edd64ce164fc5b903ee2318a,城区
538,164,278,长治医学院,4114010117,山西省,长治市,本科,公办,长治医学院(五龙校区),113.092443,36.093021,7a6a5141e9018426213bf2ff,上党区
539,164,278,长治医学院,4114010117,山西省,长治市,本科,公办,长治医学院,113.12388,36.177693,a4648d35aea441404d55470a,潞州区
540,164,278,长治医学院,4114010117,山西省,长治市,本科,公办,长治医学院,113.123337,36.17785,799b2b3b905941dce812e4b0,潞州区
541,164,278,长治医学院,4114010117,山西省,长治市,本科,公办,长治医学院,113.122794,36.178008,384b8debc12bfacfd618b7e9,潞州区
542,164,278,长治医学院,4114010117,山西省,长治市,本科,公办,长治医学院南教学区,113.125118,36.175448,d207cdfb1c8c8fd46318093f,潞州区
543,165,279,山西师范大学,4114010118,山西省,临汾市,本科,公办,山西师范大学(太原校区),112.668678,37.748519,b03cb59ed4392e024e776e9d,小店区
544,166,280,太原师范学院,4114010119,山西省,太原市,本科,公办,太原师范学院(南校区),112.612558,37.786789,ab387cab315109ec55bfff73,小店区
545,166,280,太原师范学院,4114010119,山西省,太原市,本科,公办,太原师范学院附属中学,112.583946,37.869439,96b672aa847f7c74ce04ef74,迎泽区
546,166,280,太原师范学院,4114010119,山西省,太原市,本科,公办,太原师范学院附属小学,112.613522,37.785957,3c0ea7c513b5189dfbf0cb4f,小店区
547,167,281,山西大同大学,4114010120,山西省,大同市,本科,公办,山西大同大学,113.360792,40.100621,2e2b85e3eca98a911c580051,平城区
548,167,281,山西大同大学,4114010120,山西省,大同市,本科,公办,山西大同大学浑源师范分校,113.712274,39.704013,1cea15a9945ecfc407fef556,浑源县
549,167,281,山西大同大学,4114010120,山西省,大同市,本科,公办,山西大同大学附属小学(东门),113.328498,40.07848,bbf04f8bf143d1ae095cb300,平城区
550,168,282,晋中学院,4114010121,山西省,晋中市,本科,公办,晋中学院,112.727671,37.746726,d605930d78d0e8932bd7abd0,榆次区
551,168,282,晋中学院,4114010121,山西省,晋中市,本科,公办,晋中学院,112.726978,37.744057,034d893d17e00ad7f4b9165e,榆次区
552,168,282,晋中学院,4114010121,山西省,晋中市,本科,公办,晋中学院,112.72407,37.743937,1ad496e59a4eda97b13c8196,榆次区
553,168,282,晋中学院,4114010121,山西省,晋中市,本科,公办,晋中学院,112.726978,37.744057,9eccd3d70a44659f14948eaf,榆次区
554,169,283,长治学院,4114010122,山西省,长治市,本科,公办,长治学院北校,113.143332,36.216985,550b9c65d2b3a663f90cadfe,潞州区
555,169,283,长治学院,4114010122,山西省,长治市,本科,公办,长治学院(南校区),113.153894,36.195456,b9642d4eaf258cd3b04c496b,潞州区
556,169,283,长治学院,4114010122,山西省,长治市,本科,公办,长治学院,113.142284,36.215198,3e01bcfd03c1d4072bfc4862,潞州区
557,169,283,长治学院,4114010122,山西省,长治市,本科,公办,长治学院,113.141854,36.214983,59005147c99028a132169b4a,潞州区
558,170,284,运城学院,4114010123,山西省,运城市,本科,公办,运城学院,110.938629,35.129643,828678d3026023702cb96d30,盐湖区
559,170,284,运城学院,4114010123,山西省,运城市,本科,公办,运城学院,110.941964,35.125087,4553f65d6e17fa66adcb66a4,盐湖区
560,170,284,运城学院,4114010123,山西省,运城市,本科,公办,运城学院附属中学,111.028146,35.035677,a431ecff0dc8a41cd3ff2381,盐湖区
561,171,285,忻州师范学院,4114010124,山西省,忻州市,本科,公办,忻州师范学院(南校区),112.74473,38.418392,46730d54fbb9b6ec04fef588,忻府区
562,171,285,忻州师范学院,4114010124,山西省,忻州市,本科,公办,忻州师范学院(新校区),112.74071,38.501435,a7c2ab5bf756a77772210b49,忻府区
563,171,285,忻州师范学院,4114010124,山西省,忻州市,本科,公办,忻州师范学院(五寨分院),111.844792,38.917187,beabdbf4b923999b7069d3d1,五寨县
564,171,285,忻州师范学院,4114010124,山西省,忻州市,本科,公办,忻州师范学院,112.732368,38.503933,bc850186d8a58c62902ca331,忻府区
565,171,285,忻州师范学院,4114010124,山西省,忻州市,本科,公办,忻州师范学院,112.732368,38.503933,1108542a77521f8ad42ce27c,忻府区
566,171,285,忻州师范学院,4114010124,山西省,忻州市,本科,公办,忻州师范学院东区家属院,112.739383,38.439638,2c0bd6c51710e9ab43ab9a63,忻府区
567,172,286,山西财经大学,4114010125,山西省,太原市,本科,公办,山西财经大学(坞城校区),112.595713,37.797364,93eaeda1f4b3354c4d776e74,小店区
568,172,286,山西财经大学,4114010125,山西省,太原市,本科,公办,山西财经大学(迎泽校区),112.560945,37.846621,b039b75d73baa4eb6e20b9c7,迎泽区
569,172,286,山西财经大学,4114010125,山西省,太原市,本科,公办,山西财经大学坞城校区-南院,112.592793,37.792816,59d3e5ad0af9a79958f6bec9,小店区
570,172,286,山西财经大学,4114010125,山西省,太原市,本科,公办,山西财经大学坞城校区-北院,112.595489,37.797365,08b172a10028ee57d6b74e41,小店区
571,173,287,山西中医药大学,4114010809,山西省,太原市,本科,公办,山西中医药大学(太原校区),112.536637,37.849002,74f3c43486d3c0014f3a59e6,万柏林区
572,173,287,山西中医药大学,4114010809,山西省,太原市,本科,公办,山西中医药大学附属医院(平阳路分院),112.558172,37.834649,60d099c3123397d8ece4a583,小店区
573,174,288,吕梁学院,4114010812,山西省,吕梁市,本科,公办,吕梁学院,111.154173,37.588502,ed5de26fc2d2c150dbecedaa,离石区
574,174,288,吕梁学院,4114010812,山西省,吕梁市,本科,公办,吕梁学院(南),111.154849,37.584073,6d2413c3d1d50dbd9d95de9e,离石区
575,174,288,吕梁学院,4114010812,山西省,吕梁市,本科,公办,吕梁学院,111.153447,37.58747,5d75c0da296a5408cd04ef33,离石区
576,175,289,太原学院,4114011242,山西省,太原市,本科,公办,太原学院,112.613751,37.699497,2bfb7de160144ae44054d7f3,小店区
577,175,289,太原学院,4114011242,山西省,太原市,本科,公办,太原学院(中校区),112.553318,37.841424,6a8945eba9713f15f32d8317,小店区
578,175,289,太原学院,4114011242,山西省,太原市,本科,公办,太原学院,112.586129,37.875864,a3e8341c4494b7944afd3f5a,迎泽区
579,175,289,太原学院,4114011242,山西省,太原市,本科,公办,太原学院,112.609213,37.701831,07775dcac87e387e81a12e98,小店区
580,176,290,山西警察学院,4114012111,山西省,太原市,本科,公办,山西警察学院(新校区),112.504474,37.573639,1160f6a85a0de14dd518b79c,清徐县
581,176,290,山西警察学院,4114012111,山西省,太原市,本科,公办,山西警察学院(小店校区),112.573051,37.711245,2d2295568122a501e0110370,小店区
582,177,291,山西应用科技学院,4114012779,山西省教育厅,太原市,本科,民办,山西应用科技学院(新校区),112.58387,37.62989,7f9d5000d864a9fbf603b842,小店区
583,177,291,山西应用科技学院,4114012779,山西省教育厅,太原市,本科,民办,山西应用科技学院,112.58149,37.628644,3945c8dc4bb00c35b6f42fa0,小店区
584,177,291,山西应用科技学院,4114012779,山西省教育厅,太原市,本科,民办,山西应用科技学院,112.580183,37.62625,ec37f518c3959cf188b9887e,小店区
585,177,291,山西应用科技学院,4114012779,山西省教育厅,太原市,本科,民办,山西应用科技学院,112.584271,37.626919,9c5179dc1ef79a7d6cc02c4b,小店区
586,177,291,山西应用科技学院,4114012779,山西省教育厅,太原市,本科,民办,山西应用科技学院,112.583955,37.626944,f202870d97e79918081cc780,小店区
587,177,291,山西应用科技学院,4114012779,山西省教育厅,太原市,本科,民办,山西应用科技学院,112.580651,37.629282,add6ecee2fbb8d70db2f2865,小店区
588,179,293,山西工学院,4114013534,山西省,朔州市,本科,公办,山西工学院,112.453421,39.380884,d7ecce2b15c344e7c5effb99,朔城区
589,179,293,山西工学院,4114013534,山西省,朔州市,本科,公办,山西工学院,112.453194,39.379029,993384d4b8cd218809b93a8e,朔城区
590,179,293,山西工学院,4114013534,山西省,朔州市,本科,公办,山西工学院,112.452504,39.379132,85c8c926102f37ee882fb525,朔城区
591,179,293,山西工学院,4114013534,山西省,朔州市,本科,公办,山西工学院-宿舍前院,112.457235,39.380751,8401da88a41f2f22e812e425,朔城区
592,179,293,山西工学院,4114013534,山西省,朔州市,本科,公办,山西工学院附属中学,112.392335,39.350727,805f5b1f26df700e28201ad7,朔城区
593,180,294,晋中信息学院,4114013535,山西省教育厅,晋中市,本科,民办,晋中信息学院,112.579356,37.457115,fe939dc22b73b1874d776e97,太谷区
594,180,294,晋中信息学院,4114013535,山西省教育厅,晋中市,本科,民办,晋中信息学院-创业学院,112.579434,37.457563,da001e1562b5f5622afc48e3,太谷区
595,180,294,晋中信息学院,4114013535,山西省教育厅,晋中市,本科,民办,晋中信息学院-青藤书院,112.58821,37.455978,8bd0921170c2a3a440ab9ae8,太谷区
596,180,294,晋中信息学院,4114013535,山西省教育厅,晋中市,本科,民办,晋中信息学院经济管理学院,112.583621,37.456785,0da0cd6b312b2b2860180991,太谷区
597,181,295,山西师范大学现代文理学院,4114013537,山西省教育厅,临汾市,本科,民办,山西师范大学现代文理学院-学生宿舍区,111.558449,36.091341,3928257281517cff081cc775,尧都区
598,181,295,山西师范大学现代文理学院,4114013537,山西省教育厅,临汾市,本科,民办,山西师范大学现代文理学院公寓楼-南区,111.555854,36.089629,a643b29084a8c57f8b2fb500,尧都区
599,181,295,山西师范大学现代文理学院,4114013537,山西省教育厅,临汾市,本科,民办,山西师范大学现代文理学院公寓楼-北区,111.558073,36.091847,e0637221f31b6e1c4e2fdf55,尧都区
600,183,297,山西科技学院,4114013597,山西省,晋城市,本科,公办,山西科技学院,112.950505,35.542435,57547ad3c576a1d402294ff6,泽州县
601,183,297,山西科技学院,4114013597,山西省,晋城市,本科,公办,山西科技学院-实3楼(晋城校区),112.951156,35.544478,ec0d5f016dc8283c157643ec,泽州县
602,183,297,山西科技学院,4114013597,山西省,晋城市,本科,公办,山西科技学院-2号读书楼(晋城校区),112.954577,35.545611,dd98bf9b0f0ab94188db7382,泽州县
603,184,298,山西医科大学晋祠学院,4114013598,山西省教育厅,太原市,本科,民办,山西医科大学晋祠学院(太原校区),112.435446,37.692847,5211d219915e30597dc8765d,晋源区
604,185,299,山西财经大学华商学院,4114013608,山西省教育厅,太原市,本科,民办,山西财经大学华商学院,112.586846,37.776685,edd64ce16ba354903fe2315f,小店区
605,186,300,山西工商学院,4114013691,山西省教育厅,太原市,本科,民办,山西工商学院(龙城校区),112.587875,37.773653,bff8fa7dd0ad3ca1c8213d5f,小店区
606,186,300,山西工商学院,4114013691,山西省教育厅,太原市,本科,民办,山西工商学院(北格校区),112.549972,37.650954,117af317715993499e9d6850,小店区
607,187,301,太原工业学院,4114014101,山西省,太原市,本科,公办,太原工业学院,112.552108,37.964127,ccf1159db8240468d22dd693,尖草坪区
608,187,301,太原工业学院,4114014101,山西省,太原市,本科,公办,太原工业学院-西区,112.545194,37.963251,f5a2f1e6878074e22b201a77,尖草坪区
609,187,301,太原工业学院,4114014101,山西省,太原市,本科,公办,太原工业学院-东区,112.54817,37.963824,97d14c794d0e2db7abf0cd7c,尖草坪区
610,187,301,太原工业学院,4114014101,山西省,太原市,本科,公办,太原工业学院,112.555075,37.96431,4cab39d65572511fb320a882,尖草坪区
611,187,301,太原工业学院,4114014101,山西省,太原市,本科,公办,太原工业学院-北区,112.545806,37.965344,c2733cccb5c1dab7246e98e1,尖草坪区
612,187,301,太原工业学院,4114014101,山西省,太原市,本科,公办,太原工业学院,112.546575,37.962228,127fe37103339a54f4231039,尖草坪区
613,187,301,太原工业学院,4114014101,山西省,太原市,本科,公办,太原工业学院,112.546127,37.962133,62db5dddf6bdbcf09cf779eb,尖草坪区
614,188,302,运城职业技术大学,4114014226,山西省教育厅,运城市,本科,民办,运城职业技术大学,111.015403,35.078743,d7fd2ad35a70ed2a0bccdd28,盐湖区
615,188,302,运城职业技术大学,4114014226,山西省教育厅,运城市,本科,民办,运城职业技术大学,111.011349,35.077382,2d81b15f167efb54c51b75d4,盐湖区
616,189,303,山西传媒学院,4114014434,山西省,太原市,本科,公办,山西传媒学院教职工住宅小区,112.612772,37.869946,ab4a2f3a0636117193114c83,迎泽区
617,190,304,山西工程技术学院,4114014527,山西省,阳泉市,本科,公办,山西工程技术学院,113.613161,37.888054,9f6e0b50011665616f4760dc,郊区
618,190,304,山西工程技术学院,4114014527,山西省,阳泉市,本科,公办,山西工程技术学院-宿舍区,113.614681,37.892255,229fee9f211aded6d42ce264,郊区
619,191,305,山西能源学院,4214051189,山西省,晋中市,本科,公办,山西能源学院,112.743604,37.758472,1f59f49f65ca6ced38e4a6d1,榆次区
620,191,305,山西能源学院,4214051189,山西省,晋中市,本科,公办,山西能源学院,112.741992,37.758965,5f14d3f5101920fd4354d7ac,榆次区
621,191,305,山西能源学院,4214051189,山西省,晋中市,本科,公办,山西能源学院,112.742094,37.75896,0d6608215ddf3cb1c9c3db1a,榆次区
622,191,305,山西能源学院,4214051189,山西省,晋中市,本科,公办,山西能源学院,112.741992,37.758965,259a83fd9fc12cf8d03ce3a7,榆次区
623,191,305,山西能源学院,4214051189,山西省,晋中市,本科,公办,山西能源学院,112.742094,37.75896,43cc5d2650f18145eb56fa25,榆次区
624,192,354,内蒙古大学,4115010126,内蒙古自治区,呼和浩特市,本科,公办,内蒙古大学(北校区)-东院,111.706726,40.820988,3f24cb444d71a8ff1ef74dae,赛罕区
625,192,354,内蒙古大学,4115010126,内蒙古自治区,呼和浩特市,本科,公办,内蒙古大学(南校区),111.692416,40.764629,2a64aac8ec8f21d3f03cba7d,玉泉区
626,192,354,内蒙古大学,4115010126,内蒙古自治区,呼和浩特市,本科,公办,内蒙古大学(北校区),111.697283,40.817097,1b9f391b08a850f2616858ed,赛罕区
627,192,354,内蒙古大学,4115010126,内蒙古自治区,呼和浩特市,本科,公办,内蒙古大学,111.697553,40.816319,34ba9714919335614afc8dcc,赛罕区
628,192,354,内蒙古大学,4115010126,内蒙古自治区,呼和浩特市,本科,公办,内蒙古大学(北校区)-内大家属区,111.699472,40.821092,f45f234036c2c7809f09f759,赛罕区
629,193,355,内蒙古科技大学,4115010127,内蒙古自治区,包头市,本科,公办,内蒙古科技大学,109.839293,40.626366,532e5c5535b7f5ec932ca31a,昆都仑区
630,193,355,内蒙古科技大学,4115010127,内蒙古自治区,包头市,本科,公办,内蒙古科技大学,109.843861,40.624523,d877974615249ad395f08c5c,昆都仑区
631,193,355,内蒙古科技大学,4115010127,内蒙古自治区,包头市,本科,公办,内蒙古科技大学东区,109.84671,40.625174,76fcd40779c0227cf32d8305,昆都仑区
632,193,355,内蒙古科技大学,4115010127,内蒙古自治区,包头市,本科,公办,内蒙古科技大学,109.843683,40.624767,69ddf0bc09cfebe1d0ff237d,昆都仑区
633,194,356,内蒙古工业大学,4115010128,内蒙古自治区,呼和浩特市,本科,公办,内蒙古工业大学(新城校区),111.690109,40.852623,cb6104317447c37481a12ea6,新城区
634,194,356,内蒙古工业大学,4115010128,内蒙古自治区,呼和浩特市,本科,公办,内蒙古工业大学(金川校区),111.557555,40.792989,341c35dec2574cbee6073866,土默特左旗
635,194,356,内蒙古工业大学,4115010128,内蒙古自治区,呼和浩特市,本科,公办,内蒙古工业大学-材料科学与工程学院,111.692809,40.853962,0b2dc776936628cd990050bf,新城区
636,194,356,内蒙古工业大学,4115010128,内蒙古自治区,呼和浩特市,本科,公办,内蒙古工业大学-国际教育学院,111.692066,40.850637,bb37f43afb73ff0415c8f685,新城区
637,194,356,内蒙古工业大学,4115010128,内蒙古自治区,呼和浩特市,本科,公办,内蒙古工业大学-第四教学楼(新城校区),111.691926,40.851406,d1b3ef94a4b0a769c056acd4,新城区
638,194,356,内蒙古工业大学,4115010128,内蒙古自治区,呼和浩特市,本科,公办,内蒙古工业大学(工程技术分部),111.721277,40.851608,2acb57989e6198561b94c65c,新城区
639,195,357,内蒙古农业大学,4115010129,内蒙古自治区,呼和浩特市,本科,公办,内蒙古农业大学(新校区),111.725903,40.812759,6d82464faedce877adb22af1,赛罕区
640,195,357,内蒙古农业大学,4115010129,内蒙古自治区,呼和浩特市,本科,公办,内蒙古农业大学(东校区),111.717185,40.81877,a1f3417241de7d95130daa52,赛罕区
641,195,357,内蒙古农业大学,4115010129,内蒙古自治区,呼和浩特市,本科,公办,内蒙古农业大学西校区-食品科学与工程学院,111.711493,40.811919,f2c44cc41d5e1681f82213e0,赛罕区
642,195,357,内蒙古农业大学,4115010129,内蒙古自治区,呼和浩特市,本科,公办,内蒙古农业大学-林学院,111.716401,40.81876,51029cdc85f3a304afcb66b7,赛罕区
643,196,358,内蒙古医科大学,4115010132,内蒙古自治区,呼和浩特市,本科,公办,内蒙古医科大学,111.667314,40.826934,d2c88ede4d21b98914948ee2,回民区
644,196,358,内蒙古医科大学,4115010132,内蒙古自治区,呼和浩特市,本科,公办,内蒙古医科大学(金山校区),111.442054,40.751925,a849f722aded9e2aca09f057,土默特左旗
645,196,358,内蒙古医科大学,4115010132,内蒙古自治区,呼和浩特市,本科,公办,内蒙古医科大学金山校区基础医学院,111.446984,40.751157,1aac30361257ab229a005008,土默特左旗
646,197,359,内蒙古师范大学,4115010135,内蒙古自治区,呼和浩特市,本科,公办,内蒙古师范大学,111.701164,40.809629,d6df91c16818cc6af7b91615,赛罕区
647,197,359,内蒙古师范大学,4115010135,内蒙古自治区,呼和浩特市,本科,公办,内蒙古师范大学(盛乐校区),111.795377,40.497008,0ce65c2db0b742592d47333a,和林格尔县
648,197,359,内蒙古师范大学,4115010135,内蒙古自治区,呼和浩特市,本科,公办,内蒙古师范大学家属区,111.699215,40.812748,e12136f29f2052f539e4a628,赛罕区
649,198,360,内蒙古民族大学,4115010136,内蒙古自治区,通辽市,本科,公办,内蒙古民族大学,122.260422,43.635846,5eba75f80978dc29364aae53,科尔沁区
650,198,360,内蒙古民族大学,4115010136,内蒙古自治区,通辽市,本科,公办,内蒙古民族大学(东区),122.265772,43.63126,d24e48eb3b889ab4afee7ad0,科尔沁区
651,199,361,赤峰学院,4115010138,内蒙古自治区,赤峰市,本科,公办,赤峰学院,118.923828,42.248151,75036835a0a106af5f0d029e,红山区
652,199,361,赤峰学院,4115010138,内蒙古自治区,赤峰市,本科,公办,赤峰学院-体育学院,118.922279,42.249269,e9a8f0cb343cd345f503b8a3,红山区
653,199,361,赤峰学院,4115010138,内蒙古自治区,赤峰市,本科,公办,赤峰学院-美术学院,118.923919,42.251195,b20e4d5b94091ea292114c67,红山区
654,200,362,内蒙古财经大学,4115010139,内蒙古自治区,呼和浩特市,本科,公办,内蒙古财经大学,111.63656,40.862715,e5592fce46a28438c2f1cf8d,回民区
655,200,362,内蒙古财经大学,4115010139,内蒙古自治区,呼和浩特市,本科,公办,内蒙古财经大学(西区),111.640213,40.862607,2330b558ffb61965343a7141,回民区
656,200,362,内蒙古财经大学,4115010139,内蒙古自治区,呼和浩特市,本科,公办,内蒙古财经大学,111.675354,40.841692,a97d706d8a3eb90ef50e77b4,新城区
657,200,362,内蒙古财经大学,4115010139,内蒙古自治区,呼和浩特市,本科,公办,内蒙古财经大学,111.639059,40.859689,e3be3b12df513835c42ba173,回民区
658,200,362,内蒙古财经大学,4115010139,内蒙古自治区,呼和浩特市,本科,公办,内蒙古财经大学职业学院-东区,111.673225,40.843798,e4b1f585e92778b4ddee8b27,新城区
659,201,363,呼伦贝尔学院,4115010819,内蒙古自治区,呼伦贝尔市,本科,公办,呼伦贝尔学院(主校区),119.785543,49.206952,5bb558aa50b918f2774ff1f8,海拉尔区
660,201,363,呼伦贝尔学院,4115010819,内蒙古自治区,呼伦贝尔市,本科,公办,呼伦贝尔学院(西校区),119.745098,49.2089,e6ee2fd22a1f20482b11d12c,海拉尔区
661,201,363,呼伦贝尔学院,4115010819,内蒙古自治区,呼伦贝尔市,本科,公办,呼伦贝尔学院,119.782376,49.206711,1ea5a9d56fa89307c03644aa,海拉尔区
662,201,363,呼伦贝尔学院,4115010819,内蒙古自治区,呼伦贝尔市,本科,公办,呼伦贝尔学院(牙克石校区),120.830408,49.286018,dd54f3f560122dcc43e192f5,牙克石市
663,202,364,集宁师范学院,4115011427,内蒙古自治区,乌兰察布市,本科,公办,集宁师范学院(泉山校区),113.149758,41.01706,efc7baab200df6aaa2d23015,集宁区
664,202,364,集宁师范学院,4115011427,内蒙古自治区,乌兰察布市,本科,公办,集宁师范学院(白海校区),113.216758,41.03451,1bc3d20bdb3916fc00ec013a,集宁区
665,202,364,集宁师范学院,4115011427,内蒙古自治区,乌兰察布市,本科,公办,集宁师范学院,113.145883,41.017049,4a4ae95d2eba3d3deee4a5a6,集宁区
666,202,364,集宁师范学院,4115011427,内蒙古自治区,乌兰察布市,本科,公办,集宁师范学院附属实验中学,113.138447,41.04025,e85e25270095ab5095f08c17,集宁区
667,203,365,河套学院,4115011631,内蒙古自治区,巴彦淖尔市,本科,公办,河套学院,107.459956,40.725903,fcdf8afefec94eac9f09f7e7,临河区
668,203,365,河套学院,4115011631,内蒙古自治区,巴彦淖尔市,本科,公办,河套学院,107.460953,40.726398,41bf0c732bda47504302452a,临河区
669,203,365,河套学院,4115011631,内蒙古自治区,巴彦淖尔市,本科,公办,河套学院临床医学院,107.391353,40.734788,909d46244317ca701fe99917,临河区
670,203,365,河套学院,4115011631,内蒙古自治区,巴彦淖尔市,本科,公办,河套学院-医学院,107.439118,40.771045,b2a600b1ebe2df4a11882464,临河区
671,203,365,河套学院,4115011631,内蒙古自治区,巴彦淖尔市,本科,公办,河套学院中等职业技术学校,107.4474,40.77713,eda95f604809b6d19de32140,临河区
672,204,366,呼和浩特民族学院,4115011709,内蒙古自治区,呼和浩特市,本科,公办,呼和浩特民族学院,111.662912,40.848678,5e8f72bfac62a5e7acee7a1d,新城区
673,204,366,呼和浩特民族学院,4115011709,内蒙古自治区,呼和浩特市,本科,公办,呼和浩特民族学院,111.658161,40.848844,1e399a41e9655919f4eafc3b,回民区
674,204,366,呼和浩特民族学院,4115011709,内蒙古自治区,呼和浩特市,本科,公办,呼和浩特民族学院-美术楼(呼和浩特民族学院家属院东南),111.660468,40.848345,6affde6aea16aae9ae04579f,新城区
675,206,368,内蒙古鸿德文理学院,4115014205,内蒙古自治区教育厅,呼和浩特市,本科,民办,内蒙古鸿德文理学院,111.785516,40.857197,5b25f4467196a7ea10293516,新城区
676,206,368,内蒙古鸿德文理学院,4115014205,内蒙古自治区教育厅,呼和浩特市,本科,民办,内蒙古鸿德文理学院(北校区),111.777758,40.869228,600d4b46a250c0766040a907,新城区
677,207,369,内蒙古艺术学院,4115014531,内蒙古自治区,呼和浩特市,本科,公办,内蒙古艺术学院,111.706747,40.836565,fa835ce279d47ccbe812e437,新城区
678,207,369,内蒙古艺术学院,4115014531,内蒙古自治区,呼和浩特市,本科,公办,内蒙古艺术学院-附属中等艺术学校,111.707291,40.835863,6077775799d8321a100daa75,新城区
679,208,370,鄂尔多斯应用技术学院,4115014532,内蒙古自治区,鄂尔多斯市,本科,公办,鄂尔多斯应用技术学院,109.829163,39.618021,f6d85ed1da92d8880ab93a80,康巴什区
680,208,370,鄂尔多斯应用技术学院,4115014532,内蒙古自治区,鄂尔多斯市,本科,公办,鄂尔多斯应用技术学院(东胜校区),109.918602,39.81792,5120b34d0c16cda6acee7a4f,东胜区
681,208,370,鄂尔多斯应用技术学院,4115014532,内蒙古自治区,鄂尔多斯市,本科,公办,鄂尔多斯应用技术学院,109.825981,39.614483,9f57b030afaea397a2a93460,康巴什区
682,208,370,鄂尔多斯应用技术学院,4115014532,内蒙古自治区,鄂尔多斯市,本科,公办,鄂尔多斯应用技术学院,109.826034,39.613515,97dc232a76dc44e3fbdc85a9,康巴什区
683,208,370,鄂尔多斯应用技术学院,4115014532,内蒙古自治区,鄂尔多斯市,本科,公办,鄂尔多斯应用技术学院,109.830199,39.613205,ad9c7884428308c52dfaa7f5,康巴什区
684,209,408,辽宁大学,4121010140,辽宁省,沈阳市,本科,公办,辽宁大学(崇山校区),123.412947,41.838983,7f935d7456d08bc5c72ba1fa,皇姑区
685,209,408,辽宁大学,4121010140,辽宁省,沈阳市,本科,公办,辽宁大学(蒲河校区),123.393236,41.933341,c19b4d03cf6becd6725e8068,沈北新区
686,209,408,辽宁大学,4121010140,辽宁省,沈阳市,本科,公办,辽宁大学,123.40064,41.935385,b5b913ee99d5fbd0abf72914,沈北新区
687,209,408,辽宁大学,4121010140,辽宁省,沈阳市,本科,公办,辽宁大学,123.418627,41.837537,9291c58e8a850a039122e020,皇姑区
688,209,408,辽宁大学,4121010140,辽宁省,沈阳市,本科,公办,辽宁大学,123.418522,41.838867,88e749658fcda7f5e40738cf,皇姑区
689,209,408,辽宁大学,4121010140,辽宁省,沈阳市,本科,公办,辽宁大学,123.418619,41.838931,a7c2f13c8984b61081288a23,皇姑区
690,209,408,辽宁大学,4121010140,辽宁省,沈阳市,本科,公办,辽宁大学,123.418874,41.83602,60c7ec25ba6083000f0e6b9e,皇姑区
691,210,409,大连理工大学,4121010141,教育部,大连市,本科,公办,大连理工大学,121.531261,38.888106,ee0612a67a3a6eb995f08c09,甘井子区
692,210,409,大连理工大学,4121010141,教育部,大连市,本科,公办,大连理工大学(开发区校区),121.822957,39.090874,e52c531d59cfd7adbd48420d,金州区
693,210,409,大连理工大学,4121010141,教育部,大连市,本科,公办,大连理工大学,121.531407,38.892176,9b76de3d5bc7b2a603ff2d01,甘井子区
694,210,409,大连理工大学,4121010141,教育部,大连市,本科,公办,大连理工大学(建设工程学部),121.535554,38.886223,787018b549b41fd0d518b7f3,甘井子区
695,210,409,大连理工大学,4121010141,教育部,大连市,本科,公办,大连理工大学市内校区东院,121.634402,38.922001,593850fbab910420df1e526d,西岗区
696,210,409,大连理工大学,4121010141,教育部,大连市,本科,公办,大连理工大学,121.531149,38.892162,c2487b62be3e98ffda2f2872,甘井子区
697,211,410,沈阳工业大学,4121010142,辽宁省,沈阳市,本科,公办,沈阳工业大学(中央校区),123.255554,41.742385,b7d2220b222e6fc995f08c52,铁西区
698,211,410,沈阳工业大学,4121010142,辽宁省,沈阳市,本科,公办,沈阳工业大学(兴顺校区),123.358609,41.787281,52d34ec2f56f921c21022093,铁西区
699,211,410,沈阳工业大学,4121010142,辽宁省,沈阳市,本科,公办,沈阳工业大学继续教育学院(皇姑教学部),123.418634,41.828306,203d5a0280ff148bb817e769,皇姑区
700,211,410,沈阳工业大学,4121010142,辽宁省,沈阳市,本科,公办,沈阳工业大学兴顺校区,123.357022,41.788862,5fcc0c754d3b713ff02d8337,铁西区
701,212,411,沈阳航空航天大学,4121010143,辽宁省,沈阳市,本科,公办,沈阳航空航天大学,123.414885,41.931849,04ea8f9e4eb345ad455726c1,沈北新区
702,212,411,沈阳航空航天大学,4121010143,辽宁省,沈阳市,本科,公办,沈阳航空航天大学,123.407053,41.926297,4cc3ce57dc2ac562a8f0cdc6,沈北新区
703,212,411,沈阳航空航天大学,4121010143,辽宁省,沈阳市,本科,公办,沈阳航空航天大学南区,123.417169,41.930119,4db3cf0234258da686420e68,沈北新区
704,212,411,沈阳航空航天大学,4121010143,辽宁省,沈阳市,本科,公办,沈阳航空航天大学(皇姑教学部),123.435229,41.826679,c85a8c6fcb86974c4f6d46cd,皇姑区
705,213,412,沈阳理工大学,4121010144,辽宁省,沈阳市,本科,公办,沈阳理工大学,123.500795,41.733289,b5f4eeb5120f21b42eb17ea5,浑南区
706,213,412,沈阳理工大学,4121010144,辽宁省,沈阳市,本科,公办,沈阳理工大学,123.511246,41.740383,9e2bcf597d80c1042bd7abdd,浑南区
707,213,412,沈阳理工大学,4121010144,辽宁省,沈阳市,本科,公办,沈阳理工大学附属学校,123.492124,41.736618,53137bb450adac22eedfca8d,浑南区
708,214,413,东北大学,4121010145,教育部,沈阳市,本科,公办,东北大学,123.424477,41.770971,3924c6adeea71d2679dbd245,和平区
709,214,413,东北大学,4121010145,教育部,沈阳市,本科,公办,东北大学(浑南校区),123.430933,41.659108,072a55cdeadb3af271210b6d,浑南区
710,214,413,东北大学,4121010145,教育部,沈阳市,本科,公办,东北大学(沈河校区),123.488803,41.772871,d80291934290cc7b32870aca,沈河区
711,214,413,东北大学,4121010145,教育部,沈阳市,本科,公办,东北大学,123.425801,41.664559,99de106c4e360a694e776ec7,浑南区
712,214,413,东北大学,4121010145,教育部,沈阳市,本科,公办,东北大学,123.425849,41.665099,2fc6891d11dd8496a1046437,浑南区
713,214,413,东北大学,4121010145,教育部,沈阳市,本科,公办,东北大学设计研究院,123.408999,41.752792,274a0fc144fe2a1304fef53c,和平区
714,215,414,辽宁科技大学,4121010146,辽宁省,鞍山市,本科,公办,辽宁科技大学,123.067322,41.109661,b9e5d0b8e1f90abc81a12ede,立山区
715,215,414,辽宁科技大学,4121010146,辽宁省,鞍山市,本科,公办,辽宁科技大学,123.067445,41.111547,9a7bc240a727628af12d8378,立山区
716,216,415,辽宁工程技术大学,4121010147,辽宁省,阜新市,本科,公办,辽宁工程技术大学,121.670848,42.028814,a933c6b5a5595cd8e21103d3,细河区
717,216,415,辽宁工程技术大学,4121010147,辽宁省,阜新市,本科,公办,辽宁工程技术大学(北校区),121.667271,42.055412,14cf2449d9dbb6e8e856fa1c,细河区
718,216,415,辽宁工程技术大学,4121010147,辽宁省,阜新市,本科,公办,辽宁工程技术大学阜新篮球学院,121.63368,41.999508,3be2c0fb6e9afe2430169bd3,细河区
719,217,416,辽宁石油化工大学,4121010148,辽宁省,抚顺市,本科,公办,辽宁石油化工大学,123.798166,41.863659,c0a066efbe80b47e7adbd2e1,望花区
720,217,416,辽宁石油化工大学,4121010148,辽宁省,抚顺市,本科,公办,辽宁石油化工大学-职业技术学院,123.79851,41.860819,7f23fd6caeb178b794ec84a6,望花区
721,218,417,沈阳化工大学,4121010149,辽宁省,沈阳市,本科,公办,沈阳化工大学,123.240892,41.753269,43e4adc0e351109b246e988f,铁西区
722,218,417,沈阳化工大学,4121010149,辽宁省,沈阳市,本科,公办,沈阳化工大学,123.24245,41.743949,bbb614a7fb2922b7abf72964,铁西区
723,218,417,沈阳化工大学,4121010149,辽宁省,沈阳市,本科,公办,沈阳化工大学,123.242657,41.744391,4ded81fd75ca0d3cd5b74e3d,铁西区
724,218,417,沈阳化工大学,4121010149,辽宁省,沈阳市,本科,公办,沈阳化工大学,123.241763,41.74307,4f5d0bb41de729f83fe231ea,铁西区
725,218,417,沈阳化工大学,4121010149,辽宁省,沈阳市,本科,公办,沈阳化工大学,123.242782,41.744246,42e07aaa6112b115cc06a42f,铁西区
726,219,418,大连交通大学,4121010150,辽宁省,大连市,本科,公办,大连交通大学(沙河口校区),121.577305,38.91748,b1c1054652ab7160744ff178,沙河口区
727,219,418,大连交通大学,4121010150,辽宁省,大连市,本科,公办,大连交通大学(旅顺口校区),121.170287,38.800273,a841a488c3ddcb08dbeced16,旅顺口区
728,219,418,大连交通大学,4121010150,辽宁省,大连市,本科,公办,大连交通大学(教学南区),121.567755,38.915161,fa7da3e8b6abcd6242d63e29,沙河口区
729,219,418,大连交通大学,4121010150,辽宁省,大连市,本科,公办,大连交通大学,121.577907,38.919326,b1337dec0aca7f0b14b54bda,沙河口区
730,219,418,大连交通大学,4121010150,辽宁省,大连市,本科,公办,大连交通大学,121.814569,39.071112,6b5f05261bf312d551e5c51a,金州区
731,219,418,大连交通大学,4121010150,辽宁省,大连市,本科,公办,大连交通大学软件学院,121.164448,38.796874,fa835ce2cfc90eb6e812e42c,旅顺口区
732,219,418,大连交通大学,4121010150,辽宁省,大连市,本科,公办,大连交通大学(胜利桥北校区),121.645964,38.937319,d1469ee780c7776284330421,西岗区
733,219,418,大连交通大学,4121010150,辽宁省,大连市,本科,公办,大连交通大学软件学院(中长街),121.592948,38.930193,8cba4bb05064a184ad045727,沙河口区
734,219,418,大连交通大学,4121010150,辽宁省,大连市,本科,公办,大连交通大学-老年大学,121.574664,38.917875,64f61f1b40185c6e10293534,沙河口区
735,220,419,大连海事大学,4121010151,交通运输部,大连市,本科,公办,大连海事大学,121.532616,38.874748,5fcef9eed238f9c0c4f50d78,甘井子区
736,220,419,大连海事大学,4121010151,交通运输部,大连市,本科,公办,大连海事大学-公共管理与人文学院,121.540243,38.879235,407384215d491697c51b75da,甘井子区
737,220,419,大连海事大学,4121010151,交通运输部,大连市,本科,公办,大连海事大学继续教育学院,121.546815,38.882403,341c35de3f9e4fbee6073829,沙河口区
738,221,420,大连工业大学,4121010152,辽宁省,大连市,本科,公办,大连工业大学,121.53422,38.979392,3be122e107ba95521ef74d27,甘井子区
739,221,420,大连工业大学,4121010152,辽宁省,大连市,本科,公办,大连工业大学继续教育学院,121.694686,39.029103,12816d612813aa02a8f0cdc4,甘井子区
740,221,420,大连工业大学,4121010152,辽宁省,大连市,本科,公办,大连工业大学艺术设计学院(崇德路),121.534404,38.977614,dd9dd6fb89619a7432f71d64,甘井子区
741,221,420,大连工业大学,4121010152,辽宁省,大连市,本科,公办,大连工业大学物流学院,121.694513,39.029376,a9a50c76a8f4c5d84d55475f,甘井子区
742,222,421,沈阳建筑大学,4121010153,辽宁省,沈阳市,本科,公办,沈阳建筑大学,123.522614,41.749347,53349ee3b74aff6e220262f2,浑南区
743,222,421,沈阳建筑大学,4121010153,辽宁省,沈阳市,本科,公办,沈阳建筑大学,123.518546,41.752363,60576676bfb3368a0b1cc755,浑南区
744,222,421,沈阳建筑大学,4121010153,辽宁省,沈阳市,本科,公办,沈阳建筑大学,123.521165,41.752656,f2c63f4e7a9d85d274e5b62b,浑南区
745,222,421,沈阳建筑大学,4121010153,辽宁省,沈阳市,本科,公办,沈阳建筑大学,123.520791,41.752614,8c3c1fde6ccb9bdf2a02e1fa,浑南区
746,223,422,辽宁工业大学,4121010154,辽宁省,锦州市,本科,公办,辽宁工业大学,121.12963,41.15025,8eb48fa18b4defa6f32d8316,古塔区
747,223,422,辽宁工业大学,4121010154,辽宁省,锦州市,本科,公办,辽宁工业大学,121.125048,41.144298,f412a70704a6dc130289721b,古塔区
748,223,422,辽宁工业大学,4121010154,辽宁省,锦州市,本科,公办,辽宁工业大学,121.126207,41.144751,0744c279b7851bce28b97cb8,古塔区
749,223,422,辽宁工业大学,4121010154,辽宁省,锦州市,本科,公办,辽宁工业大学,121.124927,41.144227,1e2fb112505ffbadb8bd6309,古塔区
750,223,422,辽宁工业大学,4121010154,辽宁省,锦州市,本科,公办,辽宁工业大学,121.124837,41.14424,973dc075bd7f5bf73b221c17,古塔区
751,224,423,沈阳农业大学,4121010157,辽宁省,沈阳市,本科,公办,沈阳农业大学,123.57625,41.832739,21826784705f8edbf6eafce4,沈河区
752,224,423,沈阳农业大学,4121010157,辽宁省,沈阳市,本科,公办,沈阳农业大学,123.572734,41.827158,9917ae6f0ca555536d20b968,沈河区
753,224,423,沈阳农业大学,4121010157,辽宁省,沈阳市,本科,公办,沈阳农业大学,123.570065,41.827878,aa060cfe4561ac61c91b95b4,沈河区
754,224,423,沈阳农业大学,4121010157,辽宁省,沈阳市,本科,公办,沈阳农业大学,123.570065,41.827878,d8c597a8e99b284b88db7373,沈河区
755,225,424,大连海洋大学,4121010158,辽宁省,大连市,本科,公办,大连海洋大学,121.561301,38.874923,e155701e29f1119ed72ce2d6,沙河口区
756,225,424,大连海洋大学,4121010158,辽宁省,大连市,本科,公办,大连海洋大学(渤海校区),121.329707,38.970849,8e8511c4117c931cc7f50dfb,甘井子区
757,225,424,大连海洋大学,4121010158,辽宁省,大连市,本科,公办,大连海洋大学(瓦房店校区),122.03093,39.631333,a4a79409b3f6da4732870a37,瓦房店市
758,225,424,大连海洋大学,4121010158,辽宁省,大连市,本科,公办,大连海洋大学(新校区),121.837617,39.371054,032f104e456e076193114c28,金州区
759,225,424,大连海洋大学,4121010158,辽宁省,大连市,本科,公办,大连海洋大学,121.563832,38.876509,fa21758167e674f18d772731,沙河口区
760,225,424,大连海洋大学,4121010158,辽宁省,大连市,本科,公办,大连海洋大学,121.564494,38.876272,eceb544b0c919b4c0482c241,沙河口区
761,225,424,大连海洋大学,4121010158,辽宁省,大连市,本科,公办,大连海洋大学,121.563635,38.876581,496ccb5c1b908663adcb6600,沙河口区
762,225,424,大连海洋大学,4121010158,辽宁省,大连市,本科,公办,大连海洋大学,121.563672,38.876704,ebc5ab7e0a2007eb7f29bd0f,沙河口区
763,225,424,大连海洋大学,4121010158,辽宁省,大连市,本科,公办,大连海洋大学,121.564116,38.876263,617117edfb962cb281288a52,沙河口区
764,226,425,中国医科大学,4121010159,辽宁省,沈阳市,本科,公办,中国医科大学(沈北校区),123.489738,41.962089,0081d5e249fa255c1d5800d9,沈北新区
765,226,425,中国医科大学,4121010159,辽宁省,沈阳市,本科,公办,中国医科大学,123.418857,41.79913,84847b97ef249ae49ee321cc,和平区
766,226,425,中国医科大学,4121010159,辽宁省,沈阳市,本科,公办,中国医科大学附属盛京医院(南湖院区),123.432575,41.778387,c2a981629fc9c0fc4e6d4698,和平区
767,226,425,中国医科大学,4121010159,辽宁省,沈阳市,本科,公办,中国医科大学,123.49577,41.957095,c6973a4de2dc03803010af20,沈北新区
768,226,425,中国医科大学,4121010159,辽宁省,沈阳市,本科,公办,中国医科大学,123.49577,41.957095,71b1556b83a04b0e6c476017,沈北新区
769,226,425,中国医科大学,4121010159,辽宁省,沈阳市,本科,公办,中国医科大学附属盛京医院(沈北院区),123.412847,41.952013,ca7e8039adbb1d15deee8ba2,沈北新区
770,227,426,锦州医科大学,4121010160,辽宁省,锦州市,本科,公办,锦州医科大学,121.149564,41.155208,a298cea9566e21b5b25c6ae4,古塔区
771,227,426,锦州医科大学,4121010160,辽宁省,锦州市,本科,公办,锦州医科大学畜牧兽医学院,121.132829,41.158345,e889a74481465cb58605bf11,古塔区
772,227,426,锦州医科大学,4121010160,辽宁省,锦州市,本科,公办,锦州医科大学医疗学院,121.12085,41.089329,891047bcc67633f986420e56,太和区
773,227,426,锦州医科大学,4121010160,辽宁省,锦州市,本科,公办,锦州医科大学-护理学院,121.146352,41.155766,2735be46e3e61d45d23ce377,古塔区
774,228,427,大连医科大学,4121010161,辽宁省,大连市,本科,公办,大连医科大学,121.32138,38.810167,6973cc962be22de04d776e50,旅顺口区
775,228,427,大连医科大学,4121010161,辽宁省,大连市,本科,公办,大连医科大学中山学院,121.519435,38.859516,385f2bfe4e3acefc86420e1f,甘井子区
776,228,427,大连医科大学,4121010161,辽宁省,大连市,本科,公办,大连医科大学-药学院,121.322323,38.810187,3685f54bede2623aeaf8534f,旅顺口区
777,229,428,辽宁中医药大学,4121010162,辽宁省,沈阳市,本科,公办,辽宁中医药大学,123.441202,41.837331,cb34484ea1d303daf90cadf8,皇姑区
778,229,428,辽宁中医药大学,4121010162,辽宁省,沈阳市,本科,公办,辽宁中医药大学-研究生学院,123.442598,41.838021,7096dcb90585b8230482c203,皇姑区
779,229,428,辽宁中医药大学,4121010162,辽宁省,沈阳市,本科,公办,辽宁中医药大学(社会科学部),123.442535,41.838135,0219820d351d7fe816764306,皇姑区
780,229,428,辽宁中医药大学,4121010162,辽宁省,沈阳市,本科,公办,辽宁中医药大学经济管理学院,123.442592,41.838175,a1eac7609b6ebfa99de321b4,皇姑区
781,230,429,沈阳药科大学,4121010163,辽宁省,沈阳市,本科,公办,沈阳药科大学,123.451265,41.7741,1821849539d664d551e5c58b,沈河区
782,230,429,沈阳药科大学,4121010163,辽宁省,沈阳市,本科,公办,沈阳药科大学-药学,123.450532,41.775086,c64af193d0cf4fa0077ce89e,沈河区
783,230,429,沈阳药科大学,4121010163,辽宁省,沈阳市,本科,公办,沈阳药科大学无涯学院,123.451362,41.774529,bc80efc1c40a11ca9ee321ee,沈河区
784,231,430,沈阳医学院,4121010164,辽宁省,沈阳市,本科,公办,沈阳医学院,123.415043,41.894656,6ff75e5eecda5578911fc96f,于洪区
785,231,430,沈阳医学院,4121010164,辽宁省,沈阳市,本科,公办,沈阳医学院,123.421967,41.894705,b2c734dcbb8189678d772783,于洪区
786,231,430,沈阳医学院,4121010164,辽宁省,沈阳市,本科,公办,沈阳医学院附属第二医院(北院区),123.394826,41.83479,91c13f93f089808721f0177c,皇姑区
787,231,430,沈阳医学院,4121010164,辽宁省,沈阳市,本科,公办,沈阳医学院-基础医学院,123.418062,41.894869,83840e38c20d0f62dbecede9,于洪区
788,232,431,辽宁师范大学,4121010165,辽宁省,大连市,本科,公办,辽宁师范大学(北院),121.568933,38.926191,7129f4fd680c0965ca09f046,沙河口区
789,232,431,辽宁师范大学,4121010165,辽宁省,大连市,本科,公办,辽宁师范大学(南院),121.571149,38.920014,f3c2373c6de01e52d22dd629,沙河口区
790,232,431,辽宁师范大学,4121010165,辽宁省,大连市,本科,公办,辽宁师范大学(西山湖校区),121.489576,38.930544,7b18b63242bee91adeee8b88,甘井子区
791,232,431,辽宁师范大学,4121010165,辽宁省,大连市,本科,公办,辽宁师范大学,121.570632,38.922323,6f7c36c9f6af0e3cad31e595,沙河口区
792,232,431,辽宁师范大学,4121010165,辽宁省,大连市,本科,公办,辽宁师范大学海华学院(西校区),122.931653,39.641988,2a530de2ef3920c00e3ddad3,庄河市
793,232,431,辽宁师范大学,4121010165,辽宁省,大连市,本科,公办,辽宁师范大学美术学院,121.57297,38.92027,371c342676196008c27da253,沙河口区
794,232,431,辽宁师范大学,4121010165,辽宁省,大连市,本科,公办,辽宁师范大学-田家炳教育书院(黄河路校区),121.572938,38.920507,e7ace75806fc8285c1f1cff3,沙河口区
795,233,432,沈阳师范大学,4121010166,辽宁省,沈阳市,本科,公办,沈阳师范大学,123.422281,41.914276,c8e8f633ffb4496cab0dd8c6,沈北新区
796,233,432,沈阳师范大学,4121010166,辽宁省,沈阳市,本科,公办,沈阳师范大学,123.415953,41.913049,3ba3fc3f10c9039d095cb338,皇姑区
797,233,432,沈阳师范大学,4121010166,辽宁省,沈阳市,本科,公办,沈阳师范大学-国际商学院,123.42178,41.917958,5d10196eafbcc7def523105a,沈北新区
798,233,432,沈阳师范大学,4121010166,辽宁省,沈阳市,本科,公办,沈阳师范大学-软件学院,123.420209,41.916389,58f2185b2d0844c9902ca33e,沈北新区
799,234,433,渤海大学,4121010167,辽宁省,锦州市,本科,公办,渤海大学(松山校区),121.124817,41.092012,5e65172eeac584abf119370e,太和区
800,234,433,渤海大学,4121010167,辽宁省,锦州市,本科,公办,渤海大学(滨海校区),121.069451,40.892959,42a43bc13728e343e81e9736,太和区
801,234,433,渤海大学,4121010167,辽宁省,锦州市,本科,公办,渤海大学,121.120945,41.093464,544b8307b31ccd37f02d83ee,太和区
802,234,433,渤海大学,4121010167,辽宁省,锦州市,本科,公办,渤海大学,121.074266,40.895966,a411b808e9507f7f0b5cb300,太和区
803,234,433,渤海大学,4121010167,辽宁省,锦州市,本科,公办,渤海大学,121.074266,40.895966,5e2c90527f2dcabfc5f50d32,太和区
804,234,433,渤海大学,4121010167,辽宁省,锦州市,本科,公办,渤海大学,121.123256,41.092889,26d4b283dc6e785f100daa3d,太和区
805,235,434,鞍山师范学院,4121010169,辽宁省,鞍山市,本科,公办,鞍山师范学院,123.002236,41.082871,6ed3083ab739dbb72b3a9fdd,铁东区
806,235,434,鞍山师范学院,4121010169,辽宁省,鞍山市,本科,公办,鞍山师范学院高等职业技术学院,122.930157,41.151544,e56bf5e3e95c963a0782c2e9,铁西区
807,235,434,鞍山师范学院,4121010169,辽宁省,鞍山市,本科,公办,鞍山师范学院海城学前教育学院,122.770351,40.838066,d1469ee763521a63853304b5,海城市
808,235,434,鞍山师范学院,4121010169,辽宁省,鞍山市,本科,公办,鞍山师范学院附属中学,122.992709,41.084131,81a93266b5d309e978f796f3,铁东区
809,235,434,鞍山师范学院,4121010169,辽宁省,鞍山市,本科,公办,鞍山师范学院成人教育学院(钢城街店),122.999897,41.130106,91c13f936d13fdfa21f017df,铁东区
810,236,435,大连外国语大学,4121010172,辽宁省,大连市,本科,公办,大连外国语大学(旅顺校区),121.314685,38.819576,0b6acc59a4c1c51af50e7756,旅顺口区
811,236,435,大连外国语大学,4121010172,辽宁省,大连市,本科,公办,大连外国语大学国际教育学院,121.651136,38.917209,4a9d4d11f20c020de7e9655b,中山区
812,236,435,大连外国语大学,4121010172,辽宁省,大连市,本科,公办,大连外国语大学-英语学院,121.317618,38.81964,59c3eb362c0ac0ee38e4a665,旅顺口区
813,236,435,大连外国语大学,4121010172,辽宁省,大连市,本科,公办,大连外国语大学软件学院,121.316683,38.818586,6bfaadbb15b3c67f6c3e1b9a,旅顺口区
814,236,435,大连外国语大学,4121010172,辽宁省,大连市,本科,公办,大连外国语大学国际教育学院(金普校区),121.774813,39.075464,f0d4f95d1c57b9760bccddb7,金州区
815,237,436,东北财经大学,4121010173,辽宁省,大连市,本科,公办,东北财经大学,121.557927,38.884545,6be5d13d9e97bcb8f4eafc66,沙河口区
816,237,436,东北财经大学,4121010173,辽宁省,大连市,本科,公办,东北财经大学,121.553719,38.884524,4114782c07be31e49ff7793d,沙河口区
817,237,436,东北财经大学,4121010173,辽宁省,大连市,本科,公办,东北财经大学(杨树街校区),121.546879,38.886147,dbf4d6ee1393752a6fa3cc29,沙河口区
818,238,437,中国刑事警察学院,4121010175,公安部,沈阳市,本科,公办,中国刑事警察学院,123.388133,41.849907,31a43aa1ed7d41d26c3e1be7,皇姑区
819,238,437,中国刑事警察学院,4121010175,公安部,沈阳市,本科,公办,中国刑事警察学院,123.418691,41.867356,9296279c072ffaa4b2077dca,于洪区
820,238,437,中国刑事警察学院,4121010175,公安部,沈阳市,本科,公办,中国刑事警察学院家属区,123.388115,41.852064,24451b4b20c252176fc02ccb,皇姑区
821,239,438,沈阳体育学院,4121010176,辽宁省,沈阳市,本科,公办,沈阳体育学院,123.395429,41.679206,3073f6eb0917511af60e77df,苏家屯区
822,239,438,沈阳体育学院,4121010176,辽宁省,沈阳市,本科,公办,沈阳体育学院(白清寨校区),123.7195,41.586835,28473ab94724b8d1d3ff238e,苏家屯区
823,240,439,沈阳音乐学院,4121010177,辽宁省,沈阳市,本科,公办,沈阳音乐学院(南校区),123.511703,41.754783,7611e5804570ab82f03cba21,浑南区
824,240,439,沈阳音乐学院,4121010177,辽宁省,沈阳市,本科,公办,沈阳音乐学院(桃仙校区),123.540019,41.659237,ef773a0fdc598a34220220f3,浑南区
825,240,439,沈阳音乐学院,4121010177,辽宁省,沈阳市,本科,公办,沈阳音乐学院,123.434361,41.775438,3871e04f39433b0026e0a066,和平区
826,240,439,沈阳音乐学院,4121010177,辽宁省,沈阳市,本科,公办,沈阳音乐学院音乐教育学院,123.512944,41.754509,b0fd793e25fe8087a4c75615,浑南区
827,240,439,沈阳音乐学院,4121010177,辽宁省,沈阳市,本科,公办,沈阳音乐学院-附属中等音乐学校,123.539124,41.658666,e3b596f546d944c1b04c4910,浑南区
828,241,440,鲁迅美术学院,4121010178,辽宁省,沈阳市,本科,公办,鲁迅美术学院(沈阳校区),123.436881,41.782696,f4d1535f86990189901fc934,和平区
829,241,440,鲁迅美术学院,4121010178,辽宁省,沈阳市,本科,公办,鲁迅美术学院(新校区),123.476962,41.668544,2ba8bced062dd572130daa82,浑南区
830,241,440,鲁迅美术学院,4121010178,辽宁省,沈阳市,本科,公办,鲁迅美术学院家属院,123.437467,41.783592,95cd2ee6e1209bfaa8175adf,和平区
831,241,440,鲁迅美术学院,4121010178,辽宁省,沈阳市,本科,公办,鲁迅美术学院-建筑艺术设计学院,123.43669,41.781695,edb84139915260eec4f50d62,和平区
832,242,441,辽宁对外经贸学院,4121010841,辽宁省教育厅,大连市,本科,民办,辽宁对外经贸学院,121.162903,38.825543,0b08f1cd6513537f08ccdd21,旅顺口区
833,242,441,辽宁对外经贸学院,4121010841,辽宁省教育厅,大连市,本科,民办,辽宁对外经贸学院国际商学院,121.161524,38.825289,fae2004f0d548ab352e5c5f0,旅顺口区
834,243,442,沈阳大学,4121011035,辽宁省,沈阳市,本科,公办,沈阳大学,123.467062,41.832252,ed46cb841e7d37140bf5eb90,大东区
835,243,442,沈阳大学,4121011035,辽宁省,沈阳市,本科,公办,沈阳大学-南院,123.464246,41.82731,c8e8f633fe2b4a6caa0dd8a3,大东区
836,243,442,沈阳大学,4121011035,辽宁省,沈阳市,本科,公办,沈阳大学,123.463297,41.824768,ad9105ef5e2b9a586c476063,大东区
837,243,442,沈阳大学,4121011035,辽宁省,沈阳市,本科,公办,沈阳大学,123.46576,41.824637,a5c9c2f16775e46c047ce8c7,大东区
838,244,443,大连大学,4121011258,辽宁省,大连市,本科,公办,大连大学成人教育学院,121.602366,38.90749,5b25f44672afa4ea10293529,沙河口区
839,245,444,辽宁科技学院,4121011430,辽宁省,本溪市,本科,公办,辽宁科技学院,123.719783,41.46476,bd8a9c909eeeee46e5e965d5,溪湖区
840,245,444,辽宁科技学院,4121011430,辽宁省,本溪市,本科,公办,辽宁科技学院继续教育学院(本溪市大数据局西南),123.720856,41.46775,433566298a799cae7e29bd0a,溪湖区
841,245,444,辽宁科技学院,4121011430,辽宁省,本溪市,本科,公办,辽宁科技学院管理学院,123.720229,41.463468,94f9088e83932c194d776e2b,溪湖区
842,246,445,辽宁警察学院,4121011432,辽宁省,大连市,本科,公办,辽宁警察学院,121.33579,38.970718,22e11407361e4cc9d5b74eef,甘井子区
843,246,445,辽宁警察学院,4121011432,辽宁省,大连市,本科,公办,辽宁警察学院,121.337057,38.974608,bc27439e1053491b364aaee7,甘井子区
844,247,446,沈阳工程学院,4121011632,辽宁省,沈阳市,本科,公办,沈阳工程学院,123.425593,41.92507,e889a74481195cb58605bfd6,沈北新区
845,247,446,沈阳工程学院,4121011632,辽宁省,沈阳市,本科,公办,沈阳工程学院,123.422688,41.921466,f88ef55124fe746d0f0a70f2,沈北新区
846,247,446,沈阳工程学院,4121011632,辽宁省,沈阳市,本科,公办,沈阳工程学院-电力学院,123.42344,41.925351,ff0af9ad6e4130428505bf12,沈北新区
847,248,447,辽东学院,4121011779,辽宁省,丹东市,本科,公办,辽东学院(金山校区),124.370549,40.183559,2d8e3db33b516b1a2fe67be8,元宝区
848,248,447,辽东学院,4121011779,辽宁省,丹东市,本科,公办,辽东学院(南校区),124.435535,40.157638,1816da26ce54fc26cd04ef39,振安区
849,248,447,辽东学院,4121011779,辽宁省,丹东市,本科,公办,辽东学院(蛤蟆塘校区)-南区,124.370076,40.178422,341c35de9755e7bde6073866,元宝区
850,248,447,辽东学院,4121011779,辽宁省,丹东市,本科,公办,辽东学院(蛤蟆塘),124.370552,40.181801,3ef6638a1100dbb1e8e58257,元宝区
851,248,447,辽东学院,4121011779,辽宁省,丹东市,本科,公办,辽东学院(五龙背校区),124.288097,40.258653,56f2f696cf346f810aa8d4ee,振安区
852,248,447,辽东学院,4121011779,辽宁省,丹东市,本科,公办,辽东学院医学院,124.420352,40.159099,bfbccba2a9c0a967ca09f0ac,元宝区
853,248,447,辽东学院,4121011779,辽宁省,丹东市,本科,公办,辽东学院(金山校区)-北区,124.370064,40.183487,a9823ceeb91ecf0797031974,元宝区
854,248,447,辽东学院,4121011779,辽宁省,丹东市,本科,公办,辽东学院,124.372176,40.181745,0e0bd01738ad2cb011882423,元宝区
855,249,448,大连民族大学,4121012026,国家民委,大连市,本科,公办,大连民族大学,121.781714,39.051454,b0d056f26a910a7ecbc3db99,金州区
856,249,448,大连民族大学,4121012026,国家民委,大连市,本科,公办,大连民族大学(金石滩校区),121.985301,39.086238,3b8c38c63832e379b21e36e1,金州区
857,249,448,大连民族大学,4121012026,国家民委,大连市,本科,公办,大连民族大学,121.777967,39.051216,2c5d8dd144841eb132870a7d,金州区
858,249,448,大连民族大学,4121012026,国家民委,大连市,本科,公办,大连民族大学(北区),121.988349,39.091362,101bc61be3f174dec42ba1e8,金州区
859,249,448,大连民族大学,4121012026,国家民委,大连市,本科,公办,大连民族大学(金石滩校区)-生活园区,121.987579,39.09342,b3284557421acc599868b4f7,金州区
860,249,448,大连民族大学,4121012026,国家民委,大连市,本科,公办,大连民族大学-信息与通信工程学院,121.782227,39.053436,3478e95ecc0fcbae2d473332,金州区
861,250,449,辽宁理工职业大学,4121012595,辽宁省教育厅,锦州市,本科,民办,辽宁理工职业大学(北校区),121.071712,40.901156,29490b7a5217935d52e5c577,太和区
862,250,449,辽宁理工职业大学,4121012595,辽宁省教育厅,锦州市,本科,民办,辽宁理工职业大学(南校区),121.078336,40.865409,89357784298897f8343a7151,太和区
863,250,449,辽宁理工职业大学,4121012595,辽宁省教育厅,锦州市,本科,民办,辽宁理工职业大学附属高级中学,121.078529,40.864778,b907dc95cdccd5b5ab175ae2,太和区
864,251,450,大连理工大学城市学院,4121013198,辽宁省教育厅,大连市,本科,民办,大连理工大学城市学院,121.855384,39.158072,d55fe9eaf5860cbcfd0eb0a7,金州区
865,251,450,大连理工大学城市学院,4121013198,辽宁省教育厅,大连市,本科,民办,大连理工大学城市学院-西区,121.84886,39.155855,847b7e8cc2c0788d45572652,金州区
866,251,450,大连理工大学城市学院,4121013198,辽宁省教育厅,大连市,本科,民办,大连理工大学城市学院-东区,121.855202,39.156429,c80eda84637a0952f5e73ba0,金州区
867,254,453,沈阳工学院,4121013201,辽宁省教育厅,抚顺市,本科,民办,沈阳工学院,123.724188,41.849276,fed217b869dec899ab0dd89e,望花区
868,254,453,沈阳工学院,4121013201,辽宁省教育厅,抚顺市,本科,民办,沈阳工学院,123.727102,41.847824,5a0f02da070fb8596140a98e,望花区
869,254,453,沈阳工学院,4121013201,辽宁省教育厅,抚顺市,本科,民办,沈阳工学院,123.726561,41.847552,ee6cc8ff9e3e7887da131819,望花区
870,254,453,沈阳工学院,4121013201,辽宁省教育厅,抚顺市,本科,民办,沈阳工学院,123.727102,41.847824,f61cdaa4dce1f45d465726af,望花区
871,254,453,沈阳工学院,4121013201,辽宁省教育厅,抚顺市,本科,民办,沈阳工学院-高等职业技术学院,123.723999,41.846704,e2f1331b9f94e690bca822bf,望花区
872,254,453,沈阳工学院,4121013201,辽宁省教育厅,抚顺市,本科,民办,沈阳工学院东苑生活区,123.73275,41.853393,0a807beb6336db0758f6be80,望花区
873,254,453,沈阳工学院,4121013201,辽宁省教育厅,抚顺市,本科,民办,沈阳工学院,123.726561,41.847552,c532c42c2427fd7d0c3dda48,望花区
874,254,453,沈阳工学院,4121013201,辽宁省教育厅,抚顺市,本科,民办,沈阳工学院-信息与控制学院,123.723887,41.851787,38a1b0a5250e626b4e776e94,望花区
875,256,455,大连科技学院,4121013207,辽宁省教育厅,大连市,本科,民办,大连科技学院,121.161769,38.788033,14b338f8c6ccd9e943afe657,旅顺口区
876,256,455,大连科技学院,4121013207,辽宁省教育厅,大连市,本科,民办,大连科技学院外国语学院,121.16154,38.788749,dce4103547b9bd6515764380,旅顺口区
877,256,455,大连科技学院,4121013207,辽宁省教育厅,大连市,本科,民办,大连科技学院西校区-电气工程学院,121.161534,38.788716,148ee6a84f8ae0c29f82ea98,旅顺口区
878,257,456,沈阳城市建设学院,4121013208,辽宁省教育厅,沈阳市,本科,民办,沈阳城市建设学院,123.421633,41.684461,0a15c7ec1eda53fced74f8f3,浑南区
879,258,457,大连医科大学中山学院,4121013212,辽宁省教育厅,大连市,本科,民办,大连医科大学中山学院,121.519435,38.859516,385f2bfe4e3acefc86420e1f,甘井子区
880,259,458,锦州医科大学医疗学院,4121013213,辽宁省教育厅,锦州市,本科,民办,锦州医科大学医疗学院,121.12085,41.089329,891047bcc67633f986420e56,太和区
881,261,460,辽宁理工学院,4121013217,辽宁省教育厅,锦州市,本科,民办,辽宁理工学院(滨海校区),121.086219,40.887524,b5e76524da44796e72455bc3,太和区
882,262,461,大连财经学院,4121013218,辽宁省教育厅,大连市,本科,民办,大连财经学院,121.838325,39.092157,7642c29b9355136e03ec0165,金州区
883,263,462,沈阳城市学院,4121013220,辽宁省教育厅,沈阳市,本科,民办,沈阳城市学院,123.543166,41.630896,d8c68ec21e9ddab0077ce883,苏家屯区
884,263,462,沈阳城市学院,4121013220,辽宁省教育厅,沈阳市,本科,民办,沈阳城市学院(绿岛),123.547154,41.631619,2b9d29ab046d1d2aa004645d,苏家屯区
885,264,463,大连艺术学院,4121013599,辽宁省教育厅,大连市,本科,民办,大连艺术学院(新校区),121.840646,39.104574,c5372a42848cef3b1d1d110c,金州区
886,264,463,大连艺术学院,4121013599,辽宁省教育厅,大连市,本科,民办,大连艺术学院附属高级中学,121.790363,39.060995,c94fdc83149a9d195abbbc64,金州区
887,264,463,大连艺术学院,4121013599,辽宁省教育厅,大连市,本科,民办,大连艺术学院-服装学院,121.838382,39.106883,eb33953e9fa62e371e5800ed,金州区
888,265,464,辽宁中医药大学杏林学院,4121013609,辽宁省教育厅,沈阳市,本科,民办,辽宁中医药大学杏林学院(雪松路),123.339924,41.669778,046ca846b9c58816ae080f1b,苏家屯区
889,266,465,辽宁何氏医学院,4121013610,辽宁省教育厅,沈阳市,本科,民办,辽宁何氏医学院,123.729575,41.921291,15ba2ab655afc9aa9ff7792f,浑南区
890,266,465,辽宁何氏医学院,4121013610,辽宁省教育厅,沈阳市,本科,民办,辽宁何氏医学院,123.7354,41.918185,e679b9bf4782c242ed74f831,浑南区
891,267,466,沈阳科技学院,4121013621,辽宁省教育厅,沈阳市,本科,民办,沈阳科技学院,123.409253,41.686923,17a304049a05cb6f4107c18c,浑南区
892,267,466,沈阳科技学院,4121013621,辽宁省教育厅,沈阳市,本科,民办,沈阳科技学院,123.411052,41.689361,d751f80ed298b4c1f03cba92,浑南区
893,268,467,大连东软信息学院,4121013631,辽宁省教育厅,大连市,本科,民办,大连东软信息学院(软件园校区),121.543102,38.899271,d7556f845a8b613da9059dba,甘井子区
894,268,467,大连东软信息学院,4121013631,辽宁省教育厅,大连市,本科,民办,大连东软信息学院(博川校区),121.451307,38.855491,0a1de14642b7829ac056acb1,旅顺口区
895,268,467,大连东软信息学院,4121013631,辽宁省教育厅,大连市,本科,民办,大连东软信息学院-继续教育学院,121.545741,38.895092,d8fa0be4cd9781f0cb213d55,甘井子区
896,268,467,大连东软信息学院,4121013631,辽宁省教育厅,大连市,本科,民办,大连东软信息学院生活区,121.543251,38.901311,efc242f25e9db19c373a719f,甘井子区
897,268,467,大连东软信息学院,4121013631,辽宁省教育厅,大连市,本科,民办,大连东软信息学院创新创业学院,121.540896,38.894804,af4792a3de6bfe7bf90cad28,甘井子区
898,268,467,大连东软信息学院,4121013631,辽宁省教育厅,大连市,本科,民办,大连东软信息学院信息与商务管理学院,121.54345,38.898624,7e06aac3512f716fb8bd63ac,甘井子区
899,269,468,辽宁财贸学院,4121013900,辽宁省教育厅,葫芦岛市,本科,民办,辽宁财贸学院,120.801877,40.627492,69130523b1533e75735e808e,兴城市
900,270,469,辽宁传媒学院,4121013957,辽宁省教育厅,沈阳市,本科,民办,辽宁传媒学院,123.422053,41.930681,50fb64ff2f2edb5de9f853d1,沈北新区
901,270,469,辽宁传媒学院,4121013957,辽宁省教育厅,沈阳市,本科,民办,辽宁传媒学院(北校区),123.381786,41.97295,6488c77ae2e3b11e250bd007,沈北新区
902,271,470,营口理工学院,4121014435,辽宁省,营口市,本科,公办,营口理工学院,122.250448,40.638134,440088d4437fd348bda2409e,西市区
903,271,470,营口理工学院,4121014435,辽宁省,营口市,本科,公办,营口理工学院,122.25036,40.634479,d0ba8471fcac30a7ede4a537,西市区
904,272,522,吉林大学,4122010183,教育部,长春市,本科,公办,吉林大学(前卫南区),125.285531,43.828854,ec1b2bdb24757434fd0eb087,朝阳区
905,272,522,吉林大学,4122010183,教育部,长春市,本科,公办,吉林大学(南岭校区),125.341535,43.861505,d991e116f45747281e389499,南关区
906,272,522,吉林大学,4122010183,教育部,长春市,本科,公办,吉林大学(净月校区),125.468291,43.805455,35bdfb7c7abf004b9b68b49a,南关区
907,272,522,吉林大学,4122010183,教育部,长春市,本科,公办,吉林大学(和平校区),125.272849,43.916462,1f79b6e9f8f9eee72b201ac3,绿园区
908,272,522,吉林大学,4122010183,教育部,长春市,本科,公办,吉林大学(前卫北区),125.326418,43.88531,7bc2f2bdf4273adcab059d6d,朝阳区
909,272,522,吉林大学,4122010183,教育部,长春市,本科,公办,吉林大学(新民校区),125.317098,43.876416,fa7da3e8f6978d6342d63e14,朝阳区
910,272,522,吉林大学,4122010183,教育部,长春市,本科,公办,吉林大学(南湖校区),125.300812,43.854652,b6c54dbf009ea19b03ec01ca,朝阳区
911,272,522,吉林大学,4122010183,教育部,长春市,本科,公办,吉林大学(朝阳校区),125.313932,43.889202,bcc0983c4a18d8c738e4a659,朝阳区
912,273,523,延边大学,4122010184,吉林省,延边朝鲜族自治州,本科,公办,延边大学(延吉校区),129.494852,42.918231,a1048327727fe1b9d22dd63c,延吉市
913,273,523,延边大学,4122010184,吉林省,延边朝鲜族自治州,本科,公办,延边大学(珲春校区),130.437646,42.906431,ea5b085b323d1876cf06a4ca,珲春市
914,273,523,延边大学,4122010184,吉林省,延边朝鲜族自治州,本科,公办,延边大学(BRT),129.497856,42.914172,ce0b30239c9947c34bcc4a19,延吉市
915,273,523,延边大学,4122010184,吉林省,延边朝鲜族自治州,本科,公办,延边大学(师范分院),129.508137,42.930942,01ee001f960e94b543afe655,延吉市
916,273,523,延边大学,4122010184,吉林省,延边朝鲜族自治州,本科,公办,延边大学科技学院,129.540458,42.931427,e93761f6835c7d0c223bf23a,延吉市
917,273,523,延边大学,4122010184,吉林省,延边朝鲜族自治州,本科,公办,延边大学(延吉校区)-师范学院,129.498938,42.918023,6d4d80b73bc47bf8a8059df5,延吉市
918,274,524,长春理工大学,4122010186,吉林省,长春市,本科,公办,长春理工大学(东校区),125.320006,43.842539,38abbd78a41b9323441a3203,朝阳区
919,274,524,长春理工大学,4122010186,吉林省,长春市,本科,公办,长春理工大学(西校区),125.310231,43.840856,ba663a3ab5093203c27da2f7,朝阳区
920,274,524,长春理工大学,4122010186,吉林省,长春市,本科,公办,长春理工大学光电信息学院(新校区),125.158243,44.00766,6afe69c432d1664d49fc8d69,宽城区
921,275,525,东北电力大学,4122010188,吉林省,吉林市,本科,公办,东北电力大学,126.509725,43.829381,cc0849a02d0d754994031941,船营区
922,275,525,东北电力大学,4122010188,吉林省,吉林市,本科,公办,东北电力大学,126.512497,43.827936,cd7e2e9cedb459406240a9ec,船营区
923,275,525,东北电力大学,4122010188,吉林省,吉林市,本科,公办,东北电力大学理学院,126.518729,43.832956,171abbe867c1640479b55c3d,船营区
924,275,525,东北电力大学,4122010188,吉林省,吉林市,本科,公办,东北电力大学-体育学院,126.514595,43.832034,37ea665e787f90d5601c6751,船营区
925,276,526,长春工业大学,4122010190,吉林省,长春市,本科,公办,长春工业大学(南湖校区),125.296514,43.860265,084b1cbbc83e5790b35c6a88,朝阳区
926,276,526,长春工业大学,4122010190,吉林省,长春市,本科,公办,长春工业大学(北湖校区西区),125.398101,44.001899,b78aa6d3a00df83915c905bc,宽城区
927,276,526,长春工业大学,4122010190,吉林省,长春市,本科,公办,长春工业大学(北湖校区东区),125.410702,44.002981,8b7bb41fe30441c5a6da3942,宽城区
928,276,526,长春工业大学,4122010190,吉林省,长春市,本科,公办,长春工业大学人文信息学院,125.434653,43.787606,35debf2936d6ed44a6da39cc,南关区
929,276,526,长春工业大学,4122010190,吉林省,长春市,本科,公办,长春工业大学继续教育学院分院,125.256611,43.864991,7d93b0333a467d269fec2b68,绿园区
930,276,526,长春工业大学,4122010190,吉林省,长春市,本科,公办,长春工业大学艺术设计学院,125.409597,44.002287,58ddef69dd0307f84d776e59,宽城区
931,276,526,长春工业大学,4122010190,吉林省,长春市,本科,公办,长春工业大学-政治与行政学院,125.297378,43.859836,db05eef3c32d2836c9e33cb8,朝阳区
932,277,527,吉林建筑大学,4122010191,吉林省,长春市,本科,公办,吉林建筑大学,125.41427,43.801673,f633606a5806f9330b69d9c5,南关区
933,277,527,吉林建筑大学,4122010191,吉林省,长春市,本科,公办,吉林建筑大学-艺术设计学院,125.410123,43.802091,64b08d3ba2053ba0128824cd,南关区
934,277,527,吉林建筑大学,4122010191,吉林省,长春市,本科,公办,吉林建筑大学设计研究院,125.269386,43.822006,b3e473fcea1ecd92ad080f7c,朝阳区
935,277,527,吉林建筑大学,4122010191,吉林省,长春市,本科,公办,吉林建筑大学-建工学院,125.411551,43.801965,c21f72383db7b81cff0eb044,南关区
936,277,527,吉林建筑大学,4122010191,吉林省,长春市,本科,公办,吉林建筑大学城建学院,125.158679,43.996602,43ee9798b34f0d7e32f71de8,宽城区
937,277,527,吉林建筑大学,4122010191,吉林省,长春市,本科,公办,吉林建筑大学-书法学院,125.411938,43.802067,c900c301ada3236e59bbbc18,南关区
938,278,528,吉林化工学院,4122010192,吉林省,吉林市,本科,公办,吉林化工学院,126.625598,43.906693,beabdbf4411a71987069d3ec,龙潭区
939,278,528,吉林化工学院,4122010192,吉林省,吉林市,本科,公办,吉林化工学院(双吉校区),126.418992,44.003044,e346273346c19cfa3a13fdec,昌邑区
940,279,529,吉林农业大学,4122010193,吉林省,长春市,本科,公办,吉林农业大学,125.417041,43.816805,5d89780f3531ca9726e0a01c,南关区
941,279,529,吉林农业大学,4122010193,吉林省,长春市,本科,公办,吉林农业大学,125.413773,43.823071,c3a318e527154e358733041c,南关区
942,279,529,吉林农业大学,4122010193,吉林省,长春市,本科,公办,吉林农业大学,125.413678,43.822968,cc40000310a0a11f6fc02c24,南关区
943,279,529,吉林农业大学,4122010193,吉林省,长春市,本科,公办,吉林农业大学,125.413869,43.823173,1715c880248c3af1601c679d,南关区
944,279,529,吉林农业大学,4122010193,吉林省,长春市,本科,公办,吉林农业大学-食品科学与工程学院,125.418389,43.811508,4afa5fc400ef637bddee8b4f,南关区
945,279,529,吉林农业大学,4122010193,吉林省,长春市,本科,公办,吉林农业大学-马克思主义学院,125.419133,43.814631,a15dc6ff428e44e6e60738ad,南关区
946,279,529,吉林农业大学,4122010193,吉林省,长春市,本科,公办,吉林农业大学-中药材学院,125.421303,43.816439,7eb9d7e201cf3ee4ee74f81e,南关区
