FID,num,uni_num,序号,学校名,学校标,主管部,所在地,办学层,备注,campusName,lng,lat,uid,area,lngN,latN,面积
0,2668,975,2137,海南热带海洋学院,4146011100.000000000000000,海南省,三亚市,本科,公办,海南热带海洋学院,109.540805000000006,18.316374000000000,dcf78353965ab0259a005049,吉阳区,109.530290300000004,18.312079059999999,39.4972992
1,2678,980,2142,三亚学院,4146013892.000000000000000,海南省教育厅,三亚市,本科,民办,三亚学院(南校区),109.563237000000001,18.331340999999998,00786b069070b30747572607,吉阳区,109.552822199999994,18.326854000000001,13.3778000
2,2680,980,2142,三亚学院,4146013892.000000000000000,海南省教育厅,三亚市,本科,民办,三亚学院(北校区),109.565900999999997,18.343062000000000,88d672dcc14c33c995f08ca1,吉阳区,109.555490399999996,18.338578779999999,110.4359970
3,2682,981,2143,海南科技职业大学,4146014172.000000000000000,海南省教育厅,海口市,本科,民办,海南科技职业大学(云龙校区),110.468530000000001,19.863900000000001,af060f5c9672af580482c2f4,琼山区,110.457549900000004,19.860116919999999,18.6357994
4,2667,974,2136,海南大学,4146010589.000000000000000,海南省,海口市,本科,公办,海南大学(观澜湖校区),110.343286000000006,19.926791000000001,ee1714739e75c24f047ce8d2,龙华区,110.332358400000004,19.923071910000001,49.5545006
5,2674,978,2140,海口经济学院,4146012308.000000000000000,海南省教育厅,海口市,本科,民办,海口经济学院,110.495174000000006,19.970276999999999,f81bb8f97ebe13c41b94c6a3,美兰区,110.484295799999998,19.966342480000002,87.2870026
6,2676,979,2141,琼台师范学院,4146013811.000000000000000,海南省,海口市,本科,公办,琼台师范学院(桂林洋校区),110.523217000000002,19.980723000000001,558afb5a781acf33210262a1,美兰区,110.512487600000000,19.976533289999999,68.8327026
7,2671,977,2139,海南医学院,4146011810.000000000000000,海南省,海口市,本科,公办,海南医学院(城西校区),110.340626999999998,19.987843999999999,8fa14fc3f165db6ef7eafc61,龙华区,110.329706700000003,19.984170010000000,31.0489998
8,2670,976,2138,海南师范大学,4146011658.000000000000000,海南省,海口市,本科,公办,海南师范大学(桂林洋校区),110.521623000000005,19.988699000000000,2ff04c304bd5a7c931870a8b,美兰区,110.510896000000002,19.984518540000000,93.7254028
9,2669,976,2138,海南师范大学,4146011658.000000000000000,海南省,海口市,本科,公办,海南师范大学(南校区),110.350948000000002,20.002057000000001,5b537d60c0512b88d92f283d,琼山区,110.340015600000001,19.998384300000001,20.0221004
10,2677,979,2141,琼台师范学院,4146013811.000000000000000,海南省,海口市,本科,公办,琼台师范学院,110.364110999999994,20.004460000000002,3e9d4ac47b358437081cc7e8,琼山区,110.353174499999994,20.000644120000000,2.5587399
11,2673,977,2139,海南医学院,4146011810.000000000000000,海南省,海口市,本科,公办,海南医学院宿舍区,110.339326999999997,20.036349999999999,68f00f573581d1820782c2a7,龙华区,110.328415899999996,20.032712629999999,1.0254900
12,2681,981,2143,海南科技职业大学,4146014172.000000000000000,海南省教育厅,海口市,本科,民办,海南科技职业大学(美兰校区),110.416143000000005,20.048864999999999,e56bf5e368b315390682c282,美兰区,110.405211600000001,20.044546740000001,15.4691000
13,2665,974,2136,海南大学,4146010589.000000000000000,海南省,海口市,本科,公办,海南大学(海甸校区),110.335539999999995,20.062550000000002,5c940559b6d54398d5b74efd,美兰区,110.324616899999995,20.058907130000001,132.2579956
14,2404,874,1896,广东海洋大学,4144010566.000000000000000,广东省,湛江市,本科,公办,广东海洋大学,110.307238999999996,21.157361999999999,15e1e85e462ad4a159109391,麻章区,110.296391999999997,21.153698580000000,139.7500000
15,2518,913,1935,湛江科技学院,4144012622.000000000000000,广东省教育厅,湛江市,本科,民办,湛江科技学院(新湖校区),110.250731000000002,21.170642000000001,efbf89f8d79dc57bcac3db63,麻章区,110.239887400000001,21.167268390000000,82.0418015
16,2406,874,1896,广东海洋大学,4144010566.000000000000000,广东省,湛江市,本科,公办,广东海洋大学(霞山校区),110.417186999999998,21.204720999999999,a1af15b83a42625f97ec8477,霞山区,110.406213699999995,21.200789470000000,4.9389300
17,2412,876,1898,广东医科大学,4144010571.000000000000000,广东省,湛江市,本科,公办,广东医科大学(湛江校区),110.416644000000005,21.211313000000001,5ec30a5a159f58c1b05c6a73,霞山区,110.405674099999999,21.207376960000001,14.1111002
18,2405,874,1896,广东海洋大学,4144010566.000000000000000,广东省,湛江市,本科,公办,广东海洋大学(海滨校区),110.421442999999996,21.227861000000001,fd13a3f2cfe0bff9b0077d93,霞山区,110.410459200000005,21.223976239999999,11.1709995
19,2433,883,1905,岭南师范学院,4144010579.000000000000000,广东省,湛江市,本科,公办,岭南师范学院(寸金校区),110.353396000000004,21.275264000000000,4b88f6f7a934f87d3617dc58,赤坎区,110.342355100000006,21.271980830000000,63.1996002
20,2407,874,1896,广东海洋大学,4144010566.000000000000000,广东省,湛江市,本科,公办,广东海洋大学寸金学院(麻章校区),110.343140000000005,21.292676000000000,8d96925c4a1fbf46c0f1cf92,麻章区,110.332124699999994,21.289430140000000,29.3073006
21,2644,961,2076,北海艺术设计学院,4145013524.000000000000000,广西壮族自治区教育厅,北海市,本科,民办,北海艺术设计学院,109.153503999999998,21.455058000000001,c20b12875d0d5845f5c59cd1,银海区,109.142689500000003,21.451777820000000,29.0347004
22,2487,900,1922,广东石油化工学院,4144011656.000000000000000,广东省,茂名市,本科,公办,广东石油化工学院(光华校区),110.929083000000006,21.670866000000000,7915797c7c2c39cd0d0a70a4,茂南区,110.918048999999996,21.667854810000001,2.8782899
23,2486,900,1922,广东石油化工学院,4144011656.000000000000000,广东省,茂名市,本科,公办,广东石油化工学院,110.929276999999999,21.685017999999999,42679a8690141f062ab97c79,茂南区,110.918252899999999,21.682016800000000,30.7646008
24,2635,956,2071,北部湾大学,4145011607.000000000000000,广西壮族自治区,钦州市,本科,公办,北部湾大学,108.622482000000005,21.904202000000002,5c78e851c4dcb68e843304b4,钦南区,108.612340700000004,21.900884640000001,118.1200027
25,2532,921,1943,珠海科技学院,4144013684.000000000000000,广东省教育厅,珠海市,本科,民办,珠海科技学院,113.411619999999999,22.056773000000000,11aa09c5e3aa76f4f03cba38,金湾区,113.399750699999998,22.053023169999999,182.7449951
26,2530,920,1942,北京理工大学珠海学院,4144013675.000000000000000,广东省教育厅,珠海市,本科,民办,北京理工大学珠海学院,113.547319000000002,22.370705999999998,0e40ef3a52f36380bbbd6398,香洲区,113.535698199999999,22.367509550000001,200.5240021
27,2660,972,2087,广西城市职业大学,4145013920.000000000000000,广西壮族自治区教育厅,崇左市,本科,民办,广西城市职业大学(崇左校区),107.402417999999997,22.373266000000001,e77e0093dadaf3950aa8d409,江州区,107.391779799999995,22.369671250000000,69.5288010
28,2603,946,2061,广西民族师范学院,4145010604.000000000000000,广西壮族自治区,崇左市,本科,公办,广西民族师范学院,107.402224000000004,22.389171999999999,cad4e263cf597844d8d89132,江州区,107.391600400000002,22.385583730000000,69.5326996
29,2484,899,1921,电子科技大学中山学院,4144011545.000000000000000,广东省教育厅,中山市,本科,民办,电子科技大学中山学院,113.396955000000005,22.533684000000001,4cbbf2cb5dac54a1c26c143e, ,113.385054600000004,22.530082470000000,39.3858986
30,2455,890,1912,深圳大学,4144010590.000000000000000,广东省,深圳市,本科,公办,深圳大学(粤海校区),113.942617999999996,22.537872000000000,410fd097f30195a083a00c3f,南山区,113.931206799999998,22.535245230000001,140.4160004
31,2652,966,2081,南宁师范大学师园学院,4145013642.000000000000000,广西壮族自治区教育厅,南宁市,本科,民办,南宁师范大学师园学院,108.242580000000004,22.594170999999999,4ef2308a96edc17dc26c14de,江南区,108.232214900000002,22.590747340000000,19.7847004
32,2661,972,2087,广西城市职业大学,4145013920.000000000000000,广西壮族自治区教育厅,崇左市,本科,民办,广西城市职业大学(空港校区),107.930421999999993,22.593776999999999,d0022d9a536965367ab55c56,扶绥县,107.920057499999999,22.591073219999998,33.2846985
33,2475,897,1919,五邑大学,4144011349.000000000000000,广东省,江门市,本科,公办,五邑大学,113.091300000000004,22.603529999999999,61c819c4463eef77c03644d3,蓬江区,113.079286100000004,22.600453989999998,56.4491005
34,2456,890,1912,深圳大学,4144010590.000000000000000,广东省,深圳市,本科,公办,深圳大学(丽湖校区),113.999539999999996,22.602777000000000,3bb662cc6d6515c0fda77821,南山区,113.988116500000004,22.599351020000000,59.2267990
35,2556,930,1952,南方科技大学,4144014325.000000000000000,广东省,深圳市,本科,公办,南方科技大学,114.005913000000007,22.603943999999998,72b66886812878a6a11de9b0,南山区,113.994478400000006,22.600476550000000,113.7139969
36,2610,948,2063,玉林师范学院,4145010606.000000000000000,广西壮族自治区,玉林市,本科,公办,玉林师范学院(西校区),110.167294999999996,22.646830999999999,f03f645c7e6cf82a09a8d400,玉州区,110.156365100000002,22.643262839999998,16.1065998
37,2559,934,1956,深圳北理莫斯科大学,4144016409.000000000000000,广东省,深圳市,本科,中外合作办学,深圳北理莫斯科大学,114.212304000000003,22.685234999999999,86874d596dda58762b3a9f08,龙岗区,114.200881699999996,22.682111620000001,24.9169998
38,2609,948,2063,玉林师范学院,4145010606.000000000000000,广西壮族自治区,玉林市,本科,公办,玉林师范学院(东校区),110.202569999999994,22.684207000000001,41572e002efda3b7b55f1ebd,玉州区,110.191601599999998,22.681126370000001,94.5345993
39,2633,955,2070,南宁学院,4145011549.000000000000000,广西壮族自治区教育厅,南宁市,本科,民办,南宁学院,108.459619000000004,22.755925999999999,8e3949ba741582c8ebe5821a,邕宁区,108.449097699999996,22.752605760000002,62.8773994
40,3021,1100,2445,普洱学院,4153010685.000000000000000,云南省,普洱市,本科,公办,普洱学院,101.005893999999998,22.774453999999999,e41a87f3e6d41719f603b81e,思茅区,100.998086000000001,22.771537080000002,26.1068993
41,2584,940,2055,广西医科大学,4145010598.000000000000000,广西壮族自治区,南宁市,本科,公办,广西医科大学护理学院,108.348374000000007,22.803495999999999,31dbedd7a362e95a1e1d11ce,青秀区,108.337894399999996,22.800046840000000,4.6956701
42,2655,967,2082,广西中医药大学赛恩斯新医药学院,4145013643.000000000000000,广西壮族自治区教育厅,南宁市,本科,民办,广西中医药大学赛恩斯新医药学院,108.513391999999996,22.802378000000001,6982b9c171b0787fa3acc437,青秀区,108.503014800000003,22.799186639999999,4.5793800
43,2582,940,2055,广西医科大学,4145010598.000000000000000,广西壮族自治区,南宁市,本科,公办,广西医科大学,108.357298999999998,22.803457000000002,5c2dc21d47f1be076ec02c89,青秀区,108.346823499999999,22.799892839999998,38.6785011
44,2642,960,2075,广西警察学院,4145013520.000000000000000,广西壮族自治区,南宁市,本科,公办,广西警察学院(仙葫校区),108.450964999999997,22.806660000000001,bcaebff80cc42529c9e33c26,青秀区,108.440382900000003,22.803450689999998,26.7187996
45,2588,942,2057,广西中医药大学,4145010600.000000000000000,广西壮族自治区,南宁市,本科,公办,广西中医药大学(仙葫校区),108.510390999999998,22.805392999999999,65db9558d53604f0a3acc4b0,青秀区,108.500011599999993,22.802141299999999,44.7929993
46,2658,970,2085,广西外国语学院,4145013830.000000000000000,广西壮族自治区教育厅,南宁市,本科,民办,广西外国语学院,108.522544999999994,22.806228000000001,2f27f5321f6e9215f6c59c8f,青秀区,108.512159699999998,22.803215850000001,41.6086998
47,2599,945,2060,南宁师范大学,4145010603.000000000000000,广西壮族自治区,南宁市,本科,公办,南宁师范大学(五合校区),108.532955999999999,22.811098999999999,eff69be0e555cd6b4f3a5996,青秀区,108.522565999999998,22.808259880000001,54.7776985
48,2590,942,2057,广西中医药大学,4145010600.000000000000000,广西壮族自治区,南宁市,本科,公办,广西中医药大学附设中医学校,108.348194000000007,22.826543999999998,d4a8edb98fe6990d9cf779f6,青秀区,108.337693400000006,22.823085389999999,0.0905814
49,2631,954,2069,广西财经学院,4145011548.000000000000000,广西壮族自治区,南宁市,本科,公办,广西财经学院(相思湖校区),108.188452999999996,22.833033000000000,410042ed6dcfaf0f5e0d023d,西乡塘区,108.177846000000002,22.830111639999998,37.9738998
50,2663,973,2088,广西职业师范学院,4145014684.000000000000000,广西壮族自治区,南宁市,本科,公办,广西职业师范学院(相思湖校区),108.243849999999995,22.837907000000001,2cc3c8e83504b6d74c2fdfa8,西乡塘区,108.233475100000007,22.834417070000001,21.5576000
51,2643,960,2075,广西警察学院,4145013520.000000000000000,广西壮族自治区,南宁市,本科,公办,广西警察学院(长湖校区),108.362314999999995,22.838484999999999,c52fe1efd94789a3130daa13,青秀区,108.351813100000001,22.834865789999998,10.0689001
52,2600,945,2060,南宁师范大学,4145010603.000000000000000,广西壮族自治区,南宁市,本科,公办,南宁师范大学(长岗校区),108.356092000000004,22.841657999999999,c7eca12b4b7ac636e015f9a5,兴宁区,108.345593500000007,22.838087900000001,12.5478001
53,2630,954,2069,广西财经学院,4145011548.000000000000000,广西壮族自治区,南宁市,本科,公办,广西财经学院(明秀校区),108.304805999999999,22.842010999999999,bad08136157aa749744ff143,西乡塘区,108.294274099999996,22.839134479999998,23.0842991
54,2614,950,2065,广西民族大学,4145010608.000000000000000,广西壮族自治区,南宁市,本科,公办,广西民族大学(思源湖校区),108.203536999999997,22.842110000000002,e965845f7fa63f8696ca0738,西乡塘区,108.192988900000003,22.839093909999999,58.5704994
55,2587,942,2057,广西中医药大学,4145010600.000000000000000,广西壮族自治区,南宁市,本科,公办,广西中医药大学,108.325620000000001,22.846844999999998,19f91808064f3fbd4c3a5987,西乡塘区,108.315086199999996,22.843783729999998,10.1662998
56,2597,945,2060,南宁师范大学,4145010603.000000000000000,广西壮族自治区,南宁市,本科,公办,南宁师范大学(明秀校区),108.326571000000001,22.846921999999999,50f7d14649cca2c773210bb6,西乡塘区,108.316038399999996,22.843845120000001,12.6830997
57,2613,950,2065,广西民族大学,4145010608.000000000000000,广西壮族自治区,南宁市,本科,公办,广西民族大学(相思湖校区),108.242054999999993,22.849620999999999,5e695551fd64f1f21ce999ac,西乡塘区,108.231681399999999,22.846132170000001,68.3164978
58,2645,962,2077,广西农业职业技术大学,4145016205.000000000000000,广西壮族自治区,南宁市,本科,公办,广西农业职业技术大学,108.249508000000006,22.850648000000000,750ec1657538492a4d3a59a6,西乡塘区,108.239142000000001,22.847158189999998,27.5079994
59,2664,973,2088,广西职业师范学院,4145014684.000000000000000,广西壮族自治区,南宁市,本科,公办,广西职业师范学院(罗文校区),108.228102000000007,22.858991000000000,55a10e97bc57d8120f0a7029,西乡塘区,108.217691400000007,22.855618069999998,8.6540298
60,2566,936,2051,广西大学,4145010593.000000000000000,广西壮族自治区,南宁市,本科,公办,广西大学行健文理学院,108.297559000000007,22.861097000000001,955f31934444eb0346e2744f,西乡塘区,108.287056500000006,22.858192460000001,6.9914098
61,2564,936,2051,广西大学,4145010593.000000000000000,广西壮族自治区,南宁市,本科,公办,广西大学,108.297663000000000,22.848618999999999,f60dec992072eea9a7c75661,西乡塘区,108.287150400000002,22.845717680000000,272.2130127
62,2611,949,2064,广西艺术学院,4145010607.000000000000000,广西壮族自治区,南宁市,本科,公办,广西艺术学院(相思湖校区),108.229344999999995,22.862832000000001,5edc2d99e9812d4e6b49f308,西乡塘区,108.218943300000007,22.859442860000001,33.1110001
63,2589,942,2057,广西中医药大学,4145010600.000000000000000,广西壮族自治区,南宁市,本科,公办,广西中医药大学附设中医学校,108.326784000000004,22.871428999999999,b3aa435d0d50c57615764321,西乡塘区,108.316272299999994,22.868343759999998,1.9189301
64,2488,901,1923,东莞理工学院,4144011819.000000000000000,广东省,东莞市,本科,公办,东莞理工学院(松山湖校区),113.880882000000000,22.909223000000001,17365033c5c497c6b320a8a4, ,113.869529099999994,22.905833680000001,117.3590012
65,2537,924,1946,广东科技学院,4144013719.000000000000000,广东省教育厅,东莞市,本科,民办,广东科技学院(南城校区),113.762141000000000,22.978418000000001,ff829a6be9d19c1a373a718e, ,113.750509699999995,22.974826400000001,21.7346001
66,2494,902,1924,广东工业大学,4144011845.000000000000000,广东省,广州市,本科,公办,广东工业大学番禺校区,113.340119999999999,22.980467999999998,02b657718a25003fa6da39f2,番禺区,113.328129300000001,22.977438079999999,27.8684006
67,2551,927,1949,东莞城市学院,4144013844.000000000000000,广东省教育厅,东莞市,本科,民办,东莞城市学院,113.847273000000001,22.984522999999999,f0ac864032aba0e7a4c756c4, ,113.835718600000007,22.981528930000000,55.5568008
68,2490,901,1923,东莞理工学院,4144011819.000000000000000,广东省,东莞市,本科,公办,东莞理工学院(常平)智能制造与创意设计学院,113.999116000000001,22.991720000000001,fb284a31c8b27eb98bfc0613, ,113.987693100000001,22.988176220000000,0.4453720
69,2541,925,1947,广东理工学院,4144013720.000000000000000,广东省教育厅,肇庆市,本科,民办,广东理工学院(高要校区),112.491224000000003,23.011914000000001,85e90f33b05937f5725e8039,高要区,112.479484200000002,23.008829420000001,51.6321983
70,2398,872,1894,华南理工大学,4144010561.000000000000000,教育部,广州市,本科,公办,华南理工大学(广州国际校区),113.411970999999994,23.017973000000001,f50c1929d8ff4e60b23c81f8,番禺区,113.400039599999999,23.014193310000000,99.5271988
71,2385,870,1892,暨南大学,4144010559.000000000000000,中央统战部,广州市,本科,公办,暨南大学(番禺校区),113.421937000000000,23.024256000000001,3c80992fe721927e4c6d46d8,番禺区,113.409987400000006,23.020565779999998,67.7789993
72,2503,904,1926,佛山科学技术学院,4144011847.000000000000000,广东省,佛山市,本科,公办,佛山科学技术学院(江湾校区),113.104391000000007,23.030139999999999,e99c8acc728fbb8f593ac821,禅城区,113.092348799999996,23.027020279999999,35.6502991
73,2446,887,1909,广州美术学院,4144010586.000000000000000,广东省,广州市,本科,公办,广州美术学院(大学城校区),113.389007000000007,23.044584000000000,f633606a781e994e0b69d9d6,番禺区,113.377043599999993,23.040921380000000,14.1759005
74,2491,902,1924,广东工业大学,4144011845.000000000000000,广东省,广州市,本科,公办,广东工业大学(大学城校区),113.399597000000000,23.045705000000002,f879e42a98efd3e628b97c60,番禺区,113.387646500000002,23.041922050000000,102.4789963
75,2496,902,1924,广东工业大学,4144011845.000000000000000,广东省,广州市,本科,公办,广东工业大学生活区东区,113.400395000000003,23.048683000000000,d3afca43812f2d90c51b75e3,番禺区,113.388441799999995,23.044892930000000,10.5930996
76,2425,881,1903,惠州学院,4144010577.000000000000000,广东省,惠州市,本科,公办,惠州学院,114.424935000000005,23.044727000000002,4791af4aafb023b541d63efb,惠城区,114.413401399999998,23.041595370000000,52.5782013
77,2411,875,1897,广州医科大学,4144010570.000000000000000,广东省,广州市,本科,公办,广州医科大学(番禺校区),113.432316000000000,23.050467999999999,b500250d3ec43722b24c49df,番禺区,113.420317400000002,23.046928940000001,32.3148003
78,2463,893,1915,广州大学,4144011078.000000000000000,广东省,广州市,本科,公办,广州大学,113.377371999999994,23.046824999999998,34e9c19149b09d3e9e82eac6,番禺区,113.365381499999998,23.043366469999999,79.3918991
79,2505,904,1926,佛山科学技术学院,4144011847.000000000000000,广东省,佛山市,本科,公办,佛山科学技术学院(河滨路校区),113.125264000000001,23.052098999999998,4fc3161ae254c5a93a13fd1e,禅城区,113.113229599999997,23.048820920000001,3.1664000
80,2397,872,1894,华南理工大学,4144010561.000000000000000,教育部,广州市,本科,公办,华南理工大学(大学城校区),113.411968000000002,23.054905000000002,3d6c50d58b5e55b871455bca,番禺区,113.400005800000002,23.051103659999999,104.6819992
81,2489,901,1923,东莞理工学院,4144011819.000000000000000,广东省,东莞市,本科,公办,东莞理工学院(莞城校区),113.779276999999993,23.057033000000001,f696f3c2dff75c961b11d5d0, ,113.767640999999998,23.053477220000001,22.3302994
82,2416,878,1900,广东药科大学,4144010573.000000000000000,广东省,广州市,本科,公办,广东药科大学(大学城校区),113.418229999999994,23.062028999999999,f0585b849ea32ef73010afe6,番禺区,113.406252699999996,23.058271980000001,33.4595985
83,2415,877,1899,广州中医药大学,4144010572.000000000000000,广东省,广州市,本科,公办,广州中医药大学生活区,113.406048999999996,23.061164000000002,fcffd404ccaed3b42b201a37,番禺区,113.394084899999996,23.057346530000000,25.3619995
84,2420,879,1901,华南师范大学,4144010574.000000000000000,广东省,广州市,本科,公办,华南师范大学(广州校区大学城校园),113.386582000000004,23.058768000000001,8e9c038f20a1f29cc17da244,番禺区,113.374599399999994,23.055134920000000,60.8193016
85,2449,888,1910,星海音乐学院,4144010587.000000000000000,广东省,广州市,本科,公办,星海音乐学院(大学城校区),113.386825000000002,23.063856999999999,da1cbd65975b8ff7f80cad4b,番禺区,113.374838900000000,23.060217030000000,15.4773998
86,2413,877,1899,广州中医药大学,4144010572.000000000000000,广东省,广州市,本科,公办,广州中医药大学(大学城校区),113.410494999999997,23.064129999999999,103cd2bcf5431ea6e115f9c5,番禺区,113.398526500000003,23.060317030000000,42.5483017
87,2538,924,1946,广东科技学院,4144013719.000000000000000,广东省教育厅,东莞市,本科,民办,广东科技学院(松山湖校区),113.982957999999996,23.069513000000001,2ec3a4d1853ab36b8d772732, ,113.971502900000004,23.066180200000002,62.8922997
88,2500,903,1925,广东外语外贸大学,4144011846.000000000000000,广东省,广州市,本科,公办,广东外语外贸大学(南校区),113.403974000000005,23.070256000000001,764672e5da333cd394ec84fb,番禺区,113.392004600000007,23.066437390000001,46.7453995
89,2380,869,1891,中山大学,4144010558.000000000000000,教育部,广州市,本科,公办,中山大学(广州校区东校园),113.396657000000005,23.072289999999999,af1ae56beee7d8114307c19e,番禺区,113.384682600000005,23.068515909999999,79.6737976
90,2545,925,1947,广东理工学院,4144013720.000000000000000,广东省教育厅,肇庆市,本科,民办,广东理工学院(北校区),112.447868000000000,23.079025999999999,74103dac57425ed5b11e367f,端州区,112.436096899999995,23.075235259999999,7.0628200
91,2438,884,1906,肇庆学院,4144010580.000000000000000,广东省,肇庆市,本科,公办,肇庆学院(星湖校区),112.504142999999999,23.087240000000001,9f97b1c5d8d60a07b74f54a1,端州区,112.492382599999999,23.084253520000001,6.4159398
92,2417,878,1900,广东药科大学,4144010573.000000000000000,广东省,广州市,本科,公办,广东药科大学(赤岗校区),113.340165999999996,23.089900000000000,46e86fddac8f0811d13ce369,海珠区,113.328158500000001,23.086821539999999,4.4190698
93,2467,894,1916,广州航海学院,4144011106.000000000000000,广东省,广州市,本科,公办,广州航海学院(琶洲校区),113.402940999999998,23.095285000000001,414a0e7dc7e56a05f40e77b4,海珠区,113.390978099999998,23.091460909999999,3.8508401
94,2447,887,1909,广州美术学院,4144010586.000000000000000,广东省,广州市,本科,公办,广州美术学院(昌岗校区),113.285354999999996,23.099383000000000,c5bd9a5dca7d3b0708ccdd20,海珠区,113.273582399999995,23.095726209999999,8.6847601
95,2458,891,1913,广东财经大学,4144010592.000000000000000,广东省,广州市,本科,公办,广东财经大学(广州校区),113.360872000000001,23.096688000000000,bd83996bb4665494badf8f68,海珠区,113.348843400000007,23.093496290000001,39.6445999
96,2549,926,1948,广东工商职业技术大学,4144013721.000000000000000,广东省教育厅,肇庆市,本科,民办,广东工商职业技术大学(星湖校区),112.485102999999995,23.102042000000001,673d794fa78fdddbcae33c2c,端州区,112.473333699999998,23.098808999999999,59.0023994
97,2553,929,1951,广东第二师范学院,4144014278.000000000000000,广东省,广州市,本科,公办,广东第二师范学院(海珠校区),113.323617999999996,23.104984999999999,6ee01020b5638eef52e5c574,海珠区,113.311696699999999,23.101736259999999,10.0663004
98,2418,878,1900,广东药科大学,4144010573.000000000000000,广东省,广州市,本科,公办,广东药科大学(宝岗校区),113.272424999999998,23.107624999999999,8b6c3c134122b3a9c51e514c,海珠区,113.260652300000004,23.104062379999998,2.9607000
99,2379,869,1891,中山大学,4144010558.000000000000000,教育部,广州市,本科,公办,中山大学(广州校区南校园),113.304863999999995,23.102914999999999,29da5a5c5df245c81b94c69c,海珠区,113.293039399999998,23.099379240000001,92.2796021
100,2466,894,1916,广州航海学院,4144011106.000000000000000,广东省,广州市,本科,公办,广州航海学院(黄埔校区),113.484983000000000,23.106083999999999,586f95666b4b9d8bf11937ed,黄埔区,113.473046800000006,23.102887910000000,30.4967995
101,2470,895,1917,广东警官学院,4144011110.000000000000000,广东省,广州市,本科,公办,广东警官学院,113.294336000000001,23.111476000000000,6228ca012340578e4d55475b,海珠区,113.282558800000004,23.107835110000000,0.3148560
102,2473,896,1918,仲恺农业工程学院,4144011347.000000000000000,广东省,广州市,本科,公办,仲恺农业工程学院(海珠校区),113.288537000000005,23.112292000000000,dbf6fdef184e023894ec8420,海珠区,113.276772899999997,23.108630880000000,10.1103001
103,2437,884,1906,肇庆学院,4144010580.000000000000000,广东省,肇庆市,本科,公办,肇庆学院,112.501586000000003,23.112805000000002,9081e8a0c5941235a5da3911,端州区,112.489840599999994,23.109796530000001,66.6791000
104,2381,869,1891,中山大学,4144010558.000000000000000,教育部,广州市,本科,公办,中山大学(北校区),113.296533999999994,23.134670000000000,8f8c7b69074af197eaf8536d,越秀区,113.284762799999996,23.131037530000000,15.0065002
105,2450,889,1911,广东技术师范大学,4144010588.000000000000000,广东省,广州市,本科,公办,广东技术师范大学(东校区),113.378210999999993,23.137131000000000,a8131e15dfcebbde740269be,天河区,113.366236599999993,23.133622880000001,10.1844997
106,2492,902,1924,广东工业大学,4144011845.000000000000000,广东省,广州市,本科,公办,广东工业大学(东风路校区),113.306550000000001,23.139209999999999,2602a2185d6239699cec2b3d,越秀区,113.294737600000005,23.135686870000001,7.7145200
107,2410,875,1897,广州医科大学,4144010570.000000000000000,广东省,广州市,本科,公办,广州医科大学(越秀校区),113.261982000000003,23.140112999999999,17277a397828f8f8c37da280,越秀区,113.250196200000005,23.136698360000000,4.3738098
108,2383,870,1892,暨南大学,4144010559.000000000000000,中央统战部,广州市,本科,公办,暨南大学(石牌校区),113.354510000000005,23.136831000000001,ddc8fe7205e884a7b6f42ffd,天河区,113.342506599999993,23.133702370000002,65.5056992
109,2495,902,1924,广东工业大学,4144011845.000000000000000,广东省,广州市,本科,公办,广东工业大学生活区(环市路),113.306313000000003,23.141756000000001,f0d9c9f9308dbd5a9b68b44c,越秀区,113.294500900000003,23.138228439999999,2.0615799
110,2513,907,1929,广东东软学院,4144012574.000000000000000,广东省教育厅,佛山市,本科,民办,广东东软学院,113.030647000000002,23.143497000000000,b41ba3a0a82772f7abf0cd8b,南海区,113.018875100000002,23.139893860000001,27.5769997
111,2419,879,1901,华南师范大学,4144010574.000000000000000,广东省,广州市,本科,公办,华南师范大学(广州校区石牌校园),113.357849999999999,23.144541000000000,c4172f484899a04aab059d15,天河区,113.345843599999995,23.141374070000001,77.9429016
112,2542,925,1947,广东理工学院,4144013720.000000000000000,广东省教育厅,肇庆市,本科,民办,广东理工学院(鼎湖校区),112.551058999999995,23.146906000000001,16d168c4a6ecf1474bcc4acd,鼎湖区,112.539585900000006,23.143467990000001,31.2257004
113,2504,904,1926,佛山科学技术学院,4144011847.000000000000000,广东省,佛山市,本科,公办,佛山科学技术学院(仙溪校区),113.060192999999998,23.146598000000001,c384557c73da8b82badf8ffc,南海区,113.048335600000001,23.142891349999999,87.7067032
114,2445,886,1908,广州体育学院,4144010585.000000000000000,广东省,广州市,本科,公办,广州体育学院,113.325457000000000,23.149433999999999,e17e9373ee904eb725d2bb8a,天河区,113.313538899999998,23.146197059999999,31.9029999
115,2452,889,1911,广东技术师范大学,4144010588.000000000000000,广东省,广州市,本科,公办,广东技术师范大学(西校区),113.344804999999994,23.151634000000001,3dcf854917e1d209f33cba30,天河区,113.332808099999994,23.148544470000001,2.8635900
116,2464,893,1915,广州大学,4144011078.000000000000000,广东省,广州市,本科,公办,广州大学(桂花岗校区),113.272546000000006,23.154616999999998,863e61c83028d335a80dd8a4,越秀区,113.260779799999995,23.151035879999998,5.3916402
117,2384,870,1892,暨南大学,4144010559.000000000000000,中央统战部,广州市,本科,公办,暨南大学(广园东校区),113.338064000000003,23.157432000000000,5493efade5eeb3bb7c29bda4,天河区,113.326082000000000,23.154320729999998,14.2118998
118,2453,889,1911,广东技术师范大学,4144010588.000000000000000,广东省,广州市,本科,公办,广东技术师范大学(北校区),113.260092999999998,23.162853999999999,1fbb280ec5b3a20400ec0198,越秀区,113.248283299999997,23.159459779999999,1.8913100
119,2414,877,1899,广州中医药大学,4144010572.000000000000000,广东省,广州市,本科,公办,广州中医药大学(三元里校区),113.273572000000001,23.162289999999999,0be8ab1d72eb90badc1e527a,白云区,113.261799999999994,23.158692169999998,17.1144009
120,2400,873,1895,华南农业大学,4144010564.000000000000000,广东省,广州市,本科,公办,华南农业大学,113.361284999999995,23.164034999999998,657646b42fcae0b1ca09f057,天河区,113.349263100000002,23.160812660000001,283.6480103
121,2396,872,1894,华南理工大学,4144010561.000000000000000,教育部,广州市,本科,公办,华南理工大学(五山校区),113.351557000000000,23.161069000000001,a45f647e846847649a0050da,天河区,113.339539599999995,23.157950929999998,172.8990021
122,2583,940,2055,广西医科大学,4145010598.000000000000000,广西壮族自治区,南宁市,本科,公办,广西医科大学(武鸣校区),108.252381999999997,23.173068000000001,8ea501d7a388ad165fd4fe01,武鸣区,108.242006599999996,23.169459570000001,62.9006004
123,2598,945,2060,南宁师范大学,4145010603.000000000000000,广西壮族自治区,南宁市,本科,公办,南宁师范大学(武鸣校区),108.297465000000003,23.184384999999999,0e08edb345df108a16764359,武鸣区,108.286934099999996,23.181344950000000,83.0892029
124,2632,954,2069,广西财经学院,4145011548.000000000000000,广西壮族自治区,南宁市,本科,公办,广西财经学院(武鸣校区),108.252123999999995,23.184774000000001,2109494f81c9bb571811d57e,武鸣区,108.241738900000001,23.181157870000000,124.7979965
125,2509,906,1928,南方医科大学,4144012121.000000000000000,广东省,广州市,本科,公办,南方医科大学,113.341254000000006,23.193292000000000,d4c17c139ebcb8240d3dda2d,白云区,113.329230999999993,23.190175350000001,32.4520988
126,2615,950,2065,广西民族大学,4145010608.000000000000000,广西壮族自治区,南宁市,本科,公办,广西民族大学(武鸣校区),108.149882000000005,23.194368000000001,7b1a93fa3f6f77c304fef520,武鸣区,108.139263400000004,23.190798470000001,59.7300987
127,2552,928,1950,广州新华学院,4144013902.000000000000000,广东省教育厅,广州市,本科,民办,广州新华学院,113.394423000000003,23.201573000000000,0477d74d9930804c09a8d49e,天河区,113.382437800000005,23.197770880000000,8.6528597
128,2493,902,1924,广东工业大学,4144011845.000000000000000,广东省,广州市,本科,公办,广东工业大学(龙洞校区),113.366536999999994,23.202143000000000,3ffb3a796bc43726adb22a07,天河区,113.354497499999994,23.198819740000001,29.4696007
129,2499,903,1925,广东外语外贸大学,4144011846.000000000000000,广东省,广州市,本科,公办,广东外语外贸大学(北校区),113.298378000000000,23.206610000000001,4d232a6d6f257eedce06a436,白云区,113.286559699999998,23.202958280000001,65.3150024
130,2481,898,1920,广东金融学院,4144011540.000000000000000,广东省,广州市,本科,公办,广东金融学院(广州校区),113.387067000000002,23.207203000000000,97f9928ee762a485b9df8fba,天河区,113.375071199999994,23.203501939999999,46.1232986
131,2502,903,1925,广东外语外贸大学,4144011846.000000000000000,广东省,广州市,本科,公办,广东外语外贸大学,113.262681999999998,23.248837999999999,d82ee6b5d9c187c2c4f025fa,白云区,113.250890499999997,23.245371720000001,19.1501007
132,2469,895,1917,广东警官学院,4144011110.000000000000000,广东省,广州市,本科,公办,广东警官学院(嘉禾校区),113.313034999999999,23.259864000000000,1ce938d12639b268451a3294,白云区,113.301181200000002,23.256395130000001,25.6399994
133,2454,889,1911,广东技术师范大学,4144010588.000000000000000,广东省,广州市,本科,公办,广东技术师范大学天河学院,113.463440000000006,23.265073000000001,8a4b69310fe6b540e856fab4,白云区,113.451419400000006,23.261912209999998,25.2716007
134,2459,891,1913,广东财经大学,4144010592.000000000000000,广东省,广州市,本科,公办,广东财经大学华商学校,113.784846000000002,23.261683999999999,ddbebd9663e30f38ee74f83a,增城区,113.773219400000002,23.258132249999999,78.8233032
135,2462,892,1914,广东白云学院,4144010822.000000000000000,广东省教育厅,广州市,本科,民办,广东白云学院(东校区),113.219780000000000,23.276522000000000,e04cfbc78d66c602cae33c7a,白云区,113.207860900000000,23.273440590000000,5.5357199
136,2461,892,1914,广东白云学院,4144010822.000000000000000,广东省教育厅,广州市,本科,民办,广东白云学院(西校区),113.214117999999999,23.278321999999999,8edc2da867e6e942fe0eb03b,白云区,113.202198800000005,23.275183230000000,11.4944000
137,2527,918,1940,广州应用科技学院,4144013657.000000000000000,广东省教育厅,广州市,本科,民办,广州应用科技学院,113.732551000000001,23.283047000000000,53f9b4d635a5385e4054d743,增城区,113.720828800000007,23.279757210000000,35.7792015
138,2451,889,1911,广东技术师范大学,4144010588.000000000000000,广东省,广州市,本科,公办,广东技术师范大学(白云校区),113.221723999999995,23.286187000000002,3a52ee5ec550c53400ec01e6,白云区,113.209795299999996,23.283113740000001,64.6424026
139,2550,926,1948,广东工商职业技术大学,4144013721.000000000000000,广东省教育厅,肇庆市,本科,民办,广东工商职业技术大学(大旺校区),112.828614000000002,23.293561000000000,1980c8bc5463979babf7294a,四会市,112.816989000000007,23.290124890000001,16.1536007
140,2528,919,1941,广州商学院,4144013667.000000000000000,广东省教育厅,广州市,本科,民办,广州商学院,113.575413999999995,23.309277000000002,3355e9c0845d2cce8533042c,黄埔区,113.563709000000003,23.306334920000001,38.1278992
141,2517,911,1933,广东外语外贸大学南国商学院,4144012620.000000000000000,广东省教育厅,广州市,本科,民办,广东外语外贸大学南国商学院,113.390351999999993,23.344847000000001,38d9317f15f707e70f0a706b,白云区,113.378368399999999,23.341057950000000,30.4284992
142,3025,1102,2447,红河学院,4153010687.000000000000000,云南省,红河哈尼族彝族自治州,本科,公办,红河学院,103.429812999999996,23.356148000000001,6cb18f53679080b93a04b134,蒙自市,103.421312000000000,23.352460010000001,79.3377991
143,3052,1110,2455,文山学院,4153011556.000000000000000,云南省,文山壮族苗族自治州,本科,公办,文山学院,104.255491000000006,23.361324000000000,a5ef680fa0275baab8df8fb8,文山市,104.246914300000000,23.358022840000000,18.5034008
144,3027,1102,2447,红河学院,4153010687.000000000000000,云南省,红河哈尼族彝族自治州,本科,公办,红河学院西院,103.381468999999996,23.375329000000001,01e8ba48ea440afc9322e0e9,蒙自市,103.372899899999993,23.372147410000000,0.6814620
145,2472,896,1918,仲恺农业工程学院,4144011347.000000000000000,广东省,广州市,本科,公办,仲恺农业工程学院(白云校区),113.451549000000000,23.379332999999999,c3bcaa2808f9848c2fb96d25,白云区,113.439515400000005,23.376026920000001,89.8407974
146,2561,935,1957,广东以色列理工学院,4144016410.000000000000000,广东省,汕头市,本科,中外合作办学,广东以色列理工学院(南校区),116.641174000000007,23.408546000000001,71e740479910922514948eb5,金平区,116.630378500000006,23.404945770000001,36.5509987
147,2536,923,1945,广州科技职业技术大学,4144013717.000000000000000,广东省教育厅,广州市,本科,民办,广州科技职业技术大学,113.470738999999995,23.408557999999999,37d60a46169f8f1d1e1d110f,白云区,113.458707799999999,23.405371649999999,55.9049988
148,2554,929,1951,广东第二师范学院,4144014278.000000000000000,广东省,广州市,本科,公办,广东第二师范学院(花都校区),113.191783000000001,23.411083999999999,1aa489fed8be2c55ae080fe5,花都区,113.179876300000004,23.407520130000002,23.7884998
149,2460,892,1914,广东白云学院,4144010822.000000000000000,广东省教育厅,广州市,本科,民办,广东白云学院(北校区),113.487846000000005,23.413831999999999,a914a9814c7100fd8bb988c8,白云区,113.475898599999994,23.410505090000001,34.6558990
150,2560,935,1957,广东以色列理工学院,4144016410.000000000000000,广东省,汕头市,本科,中外合作办学,广东以色列理工学院,116.646298000000002,23.416495000000001,e4399277221b56fcfbdc852b,金平区,116.635488499999994,23.412871750000001,5.7901001
151,2506,905,1927,广东培正学院,4144012059.000000000000000,广东省教育厅,广州市,本科,民办,广东培正学院,113.096763999999993,23.415482999999998,5ff330080356445e32f71d75,花都区,113.084684499999995,23.412195270000002,48.0537987
152,2394,871,1893,汕头大学,4144010560.000000000000000,广东省,汕头市,本科,公办,汕头大学(东海岸校区),116.846013999999997,23.419405000000001,80b74f7a0e2ce223c51b75c2,澄海区,116.834967300000002,23.416262079999999,18.8565998
153,2389,871,1893,汕头大学,4144010560.000000000000000,广东省,汕头市,本科,公办,汕头大学(桑浦山校区),116.639757000000003,23.418959999999998,581a01ab9390d2dc2e473314,金平区,116.628951799999996,23.415366079999998,90.0137024
154,2514,908,1930,广州城市理工学院,4144012617.000000000000000,广东省教育厅,广州市,本科,民办,广州城市理工学院,113.179041999999995,23.440750999999999,309ca2c6ef4cfd139cec2b0c,花都区,113.167134099999998,23.436970429999999,57.3101997
155,2535,922,1944,广州工商学院,4144013714.000000000000000,广东省教育厅,广州市,本科,民办,广州工商学院(花都校区),113.188096000000002,23.446290000000001,75d0881a0868cf4d3a04b116,花都区,113.176181099999994,23.442650619999998,17.7747993
156,2624,952,2067,梧州学院,4145011354.000000000000000,广西壮族自治区,梧州市,本科,公办,梧州学院师范学院(校区),111.323479000000006,23.494679999999999,c605d8f82bdc3c367ec876d4,万秀区,111.311771500000006,23.491436870000001,2.3970900
157,2623,952,2067,梧州学院,4145011354.000000000000000,广西壮族自治区,梧州市,本科,公办,梧州学院,111.322851999999997,23.503844999999998,d6df91c14337e16bf7b9163f,万秀区,111.311142200000006,23.500610729999998,36.5806007
158,2525,914,1936,华南农业大学珠江学院,4144012623.000000000000000,广东省教育厅,广州市,本科,民办,华南农业大学珠江学院,113.587688000000000,23.517956000000002,3f9337d68b8713b3f7231023,从化区,113.576004600000005,23.515059640000000,30.1399002
159,2382,869,1891,中山大学,4144010558.000000000000000,教育部,广州市,本科,公办,中山大学南方学院,113.685751999999994,23.638368000000000,72e57fd77c060dacf9dc858b,从化区,113.674048099999993,23.635212610000000,64.6744003
160,2432,882,1904,韩山师范学院,4144010578.000000000000000,广东省,潮州市,本科,公办,韩山师范学院,116.672852000000006,23.661308999999999,9132c4202b3bfdbb4e776ee6,湘桥区,116.661911000000003,23.657926069999998,53.3146019
161,2627,953,2068,广西科技师范学院,4145011546.000000000000000,广西壮族自治区,来宾市,本科,公办,广西科技师范学院,109.217547999999994,23.779485000000001,fa216c990513b832e8e5826f,兴宾区,109.206780100000003,23.775835969999999,68.8581009
162,3075,1120,2465,滇西科技师范学院,4153014092.000000000000000,云南省,临沧市,本科,公办,滇西科技师范学院,100.082537000000002,23.893917999999999,fef58f1b156b624472210b74,临翔区,100.074857800000004,23.890222250000001,28.3015995
163,2585,941,2056,右江民族医学院,4145010599.000000000000000,广西壮族自治区,百色市,本科,公办,右江民族医学院,106.619499000000005,23.894935000000000,b533ea4a41a4383c4f6d4672,右江区,106.609523999999993,23.892137389999998,18.5195999
164,2618,951,2066,百色学院,4145010609.000000000000000,广西壮族自治区,百色市,本科,公办,百色学院(东合校区),106.615170000000006,23.895890000000001,65beb51957a52474f4b9164f,右江区,106.605205900000001,23.893060920000000,10.0257998
165,2620,951,2066,百色学院,4145010609.000000000000000,广西壮族自治区,百色市,本科,公办,百色学院,106.632247000000007,23.918066000000000,4f7e6946b82a47d2fda778c9,右江区,106.622241500000001,23.915272430000002,8.4835396
166,2619,951,2066,百色学院,4145010609.000000000000000,广西壮族自治区,百色市,本科,公办,百色学院(澄碧校区),106.655743999999999,23.927484000000000,6a4ea062b337ceee40afe6cb,右江区,106.645759499999997,23.924370369999998,52.0914993
167,2569,937,2052,广西科技大学,4145010594.000000000000000,广西壮族自治区,柳州市,本科,公办,广西科技大学(柳石校区),109.449659999999994,24.249203999999999,d1469ee77f8f1e63843304e8,鱼峰区,109.438645500000007,24.245567330000000,32.8956985
168,2442,885,1907,嘉应学院,4144010582.000000000000000,广东省,梅州市,本科,公办,嘉应学院(江南校区),116.125146000000001,24.281794999999999,d219bb1d2922a0f5f50e77d5,梅江区,116.113750400000001,24.278603090000001,3.6570001
169,2444,885,1907,嘉应学院,4144010582.000000000000000,广东省,梅州市,本科,公办,嘉应学院(程江校区),116.096855000000005,24.293762999999998,4d2a321565523ad7ce04efe6,梅县区,116.085429899999994,24.290684670000001,5.7508998
170,2570,937,2052,广西科技大学,4145010594.000000000000000,广西壮族自治区,柳州市,本科,公办,广西科技大学(箭盘校区),109.442199000000002,24.312194999999999,cd302055babfb2552cb96d92,鱼峰区,109.431180400000002,24.308575059999999,2.2133000
171,2443,885,1907,嘉应学院,4144010582.000000000000000,广东省,梅州市,本科,公办,嘉应学院(黄塘校区),116.104275999999999,24.320812000000000,7388dffd952b26e8d2ff23aa,梅江区,116.092865399999994,24.317785749999999,4.3763599
172,2441,885,1907,嘉应学院,4144010582.000000000000000,广东省,梅州市,本科,公办,嘉应学院(江北校区),116.135397999999995,24.334420000000001,cde9e2c75ecae2b7e91e97b0,梅江区,116.124087000000003,24.331086429999999,50.1148987
173,2568,937,2052,广西科技大学,4145010594.000000000000000,广西壮族自治区,柳州市,本科,公办,广西科技大学(文昌校区),109.453323999999995,24.336022000000000,8fe7ea46c759c0f23ce23125,城中区,109.442329200000003,24.332441870000000,72.2554016
174,3040,1106,2451,玉溪师范学院,4153011390.000000000000000,云南省,玉溪市,本科,公办,玉溪师范学院,102.570076000000000,24.345234000000001,4bb049d9a23045469800509b,红塔区,102.562344899999999,24.342431030000000,62.5248985
175,3041,1106,2451,玉溪师范学院,4153011390.000000000000000,云南省,玉溪市,本科,公办,玉溪师范学院(西院),102.558374999999998,24.354790000000001,49d95938aaf37142c71e519b,红塔区,102.550581600000001,24.352115710000000,2.0650001
176,2646,963,2078,柳州工学院,4145013639.000000000000000,广西壮族自治区教育厅,柳州市,本科,民办,柳州工学院,109.537323000000001,24.373335999999998,b9e5d0b806322bbd80a12e96,鱼峰区,109.526455499999997,24.370280139999998,46.2128983
177,2640,959,2074,贺州学院,4145011838.000000000000000,广西壮族自治区,贺州市,本科,公办,贺州学院(东校区),111.543543000000000,24.415389000000001,4642844a31ab14d8c9fa5f3e,八步区,111.531778500000001,24.412684339999998,7.6214099
178,2639,959,2074,贺州学院,4145011838.000000000000000,广西壮族自治区,贺州市,本科,公办,贺州学院(西校区),111.519692000000006,24.416049000000001,dffd4642c1efa0b33c9a5e3e,八步区,111.507922399999998,24.413001950000002,63.2505989
179,1488,552,1143,厦门理工学院,4135011062.000000000000000,福建省,厦门市,本科,公办,厦门理工学院(思明校区),118.096819999999994,24.444742000000002,85d1aff66ad189061e5800b9,思明区,118.085425099999995,24.441083339999999,4.3527799
180,1455,538,1129,厦门大学,4135010384.000000000000000,教育部,厦门市,本科,公办,厦门大学(思明校区),118.108573000000007,24.442323999999999,75b7a8f855318e27e3110384,思明区,118.097144999999998,24.438821930000000,135.6959991
181,1485,551,1142,闽南师范大学,4135010402.000000000000000,福建省,漳州市,本科,公办,闽南师范大学(圆山校区),117.585335000000001,24.500225000000000,b388f9fd3b104241b35c6a72,南靖县,117.574098399999997,24.497075039999999,15.0774002
182,2605,947,2062,河池学院,4145010605.000000000000000,广西壮族自治区,河池市,本科,公办,河池学院,108.674115000000000,24.504078000000000,41ff27f091e580579a00505e,宜州区,108.663622300000000,24.501402460000001,38.0578003
183,1484,551,1142,闽南师范大学,4135010402.000000000000000,福建省,漳州市,本科,公办,闽南师范大学,117.643041999999994,24.515698000000000,e8a20bcf57ea7dd9d12dd615,芗城区,117.631734300000005,24.512814010000000,62.5839996
184,1464,543,1134,集美大学,4135010390.000000000000000,福建省,厦门市,本科,公办,集美大学,118.101028999999997,24.588480000000001,9336cec7511b34f4be48422b,集美区,118.089613299999996,24.584884740000000,125.0869980
185,1515,559,1150,厦门医学院,4135012631.000000000000000,福建省,厦门市,本科,公办,厦门医学院,118.011341000000002,24.613924000000001,062838c356482941a11de9e6,集美区,117.999954500000001,24.611014640000000,33.4510002
186,1539,565,1156,厦门工学院,4135013115.000000000000000,福建省教育厅,厦门市,本科,民办,厦门工学院,118.072811999999999,24.622581000000000,1eeed546c27a798fb5147f19,集美区,118.061383399999997,24.618998950000002,40.6941986
187,1487,552,1143,厦门理工学院,4135011062.000000000000000,福建省,厦门市,本科,公办,厦门理工学院(集美校区),118.093221000000000,24.630355999999999,e98737fa567aa55995ca076a,集美区,118.081784999999996,24.626683679999999,61.9872017
188,1519,560,1151,厦门华厦学院,4135012709.000000000000000,福建省教育厅,厦门市,本科,民办,厦门华厦学院,118.089533000000003,24.636232000000000,eb614cbebd23dd88fe0eb050,集美区,118.078100899999995,24.632545369999999,27.5347996
189,1520,561,1152,闽南理工学院,4135012710.000000000000000,福建省教育厅,泉州市,本科,民办,闽南理工学院(宝盖校区),118.674513000000005,24.721522000000000,14076dee4f9175f702294f04,石狮市,118.663566700000004,24.718181640000001,65.0717010
190,1521,561,1152,闽南理工学院,4135012710.000000000000000,福建省教育厅,泉州市,本科,民办,闽南理工学院(蚶江校区),118.691119999999998,24.749255000000002,860f86335cc4bfe9b05c6a4d,石狮市,118.680126799999996,24.745819099999999,7.8676200
191,2421,880,1902,韶关学院,4144010576.000000000000000,广东省,韶关市,本科,公办,韶关学院(韶乐园校区),113.678460999999999,24.780690000000000,ea77056cf549d20b00ec0184,浈江区,113.666702400000005,24.777705829999999,149.1380005
192,1525,562,1153,泉州职业技术大学,4135012928.000000000000000,福建省教育厅,泉州市,本科,民办,泉州职业技术大学(晋江校区),118.475258999999994,24.785163000000001,c09a9b6e3df1014681288ac7,晋江市,118.463991399999998,24.781870999999999,24.4503002
193,2423,880,1902,韶关学院,4144010576.000000000000000,广东省,韶关市,本科,公办,韶关学院医学院,113.596124000000003,24.794184000000001,41572e00428f1fb4b45f1e52,武江区,113.584369199999998,24.791542750000001,3.0914400
194,2424,880,1902,韶关学院,4144010576.000000000000000,广东省,韶关市,本科,公办,韶关学院(韩家山校区),113.617940000000004,24.808270000000000,3fdcd9fa0ca9091a6c3e1b85,浈江区,113.606276199999996,24.805307880000001,10.1136999
195,2422,880,1902,韶关学院,4144010576.000000000000000,广东省,韶关市,本科,公办,韶关学院黄田坝校区,113.597241999999994,24.818114000000001,c5ddcc08ccf2f9c6d8131852,武江区,113.585500100000004,24.815463330000000,2.0869701
196,2983,1090,2435,云南大学,4153010673.000000000000000,云南省,昆明市,本科,公办,云南大学(呈贡校区),102.857014000000007,24.833155000000001,de8b35ec773e918e246e9815,呈贡区,102.849197599999997,24.829999420000000,253.4380035
197,3034,1104,2449,云南艺术学院,4153010690.000000000000000,云南省,昆明市,本科,公办,云南艺术学院,102.832956999999993,24.838173999999999,b74d74bfaedd3d58ca09f0d6,呈贡区,102.825094800000002,24.835001299999998,53.1539993
198,3007,1096,2441,云南中医药大学,4153010680.000000000000000,云南省,昆明市,本科,公办,云南中医药大学,102.829256000000001,24.844342000000001,c04a4b7a21dff3ff0a69d9fb,呈贡区,102.821371600000006,24.841203239999999,51.0956001
199,3037,1105,2450,云南民族大学,4153010691.000000000000000,云南省,昆明市,本科,公办,云南民族大学(雨花校区),102.858318999999995,24.844327000000000,6112ddf9c0376eb725e0a0f1,呈贡区,102.850490800000003,24.841181570000000,106.4219971
200,2997,1094,2439,昆明医科大学,4153010678.000000000000000,云南省,昆明市,本科,公办,昆明医科大学,102.832969000000006,24.851662000000001,1f3cbc6b63e937d10f0e6b0e,呈贡区,102.825092999999995,24.848484480000000,97.9918976
201,2987,1091,2436,昆明理工大学,4153010674.000000000000000,云南省,昆明市,本科,公办,昆明理工大学(呈贡校区),102.863343999999998,24.856097999999999,1932a917039edbf63de23172,呈贡区,102.855496599999995,24.853011949999999,231.3699951
202,3009,1097,2442,云南师范大学,4153010681.000000000000000,云南省,昆明市,本科,公办,云南师范大学(呈贡校区),102.859746999999999,24.867435000000000,0f03227bf33ea80dc829151f,呈贡区,102.851897300000005,24.864298789999999,127.1100006
203,1481,550,1141,泉州师范学院,4135010399.000000000000000,福建省,泉州市,本科,公办,泉州师范学院,118.677207999999993,24.874507000000001,24f9694fd2a6ffb63fe231e7,丰泽区,118.666227500000005,24.871115039999999,75.3385010
204,3029,1103,2448,云南财经大学,4153010689.000000000000000,云南省,昆明市,本科,公办,云南财经大学(安宁校区),102.568128000000002,24.885456000000001,cac68fe3e3081bc608f5eb19,安宁市,102.560337300000000,24.882703990000000,59.6929016
205,1526,562,1153,泉州职业技术大学,4135012928.000000000000000,福建省教育厅,泉州市,本科,民办,泉州职业技术大学(泉州校区),118.618091000000007,24.892769999999999,34f68ab03d5b5c0a8f55ec01,丰泽区,118.607065899999995,24.890092559999999,2.3186800
206,3056,1111,2456,云南经济管理学院,4153012560.000000000000000,云南省教育厅,昆明市,本科,民办,云南经济管理学院,102.442266000000004,24.904555999999999,d7f72de2fc769716f6c59c85,安宁市,102.434144700000004,24.901568279999999,35.6297989
207,1483,550,1141,泉州师范学院,4135010399.000000000000000,福建省,泉州市,本科,公办,泉州师范学院软件学院,118.548466000000005,24.913972000000001,46e86fddaf3d0f11d13ce3df,鲤城区,118.537479099999999,24.910688929999999,2.3302801
208,3070,1118,2463,云南艺术学院文华学院,4153013333.000000000000000,云南省教育厅,昆明市,本科,民办,云南艺术学院文华学院,102.904323000000005,24.943325000000002,bf2f491c211b4af740e19267,呈贡区,102.896398199999993,24.940778380000001,17.4738007
209,1456,539,1130,华侨大学,4135010385.000000000000000,中央统战部,泉州市,本科,公办,华侨大学(泉州校区),118.650844000000006,24.940978999999999,b5dde57862f411e140afe606,丰泽区,118.639858899999993,24.938050550000000,65.2799988
210,1558,573,1164,泉州信息工程学院,4135013766.000000000000000,福建省教育厅,泉州市,本科,民办,泉州信息工程学院,118.591486000000003,24.948302999999999,c660c10c0e04b7f89d9d6856,丰泽区,118.580564499999994,24.945204810000000,28.2425003
211,2984,1090,2435,云南大学,4153010673.000000000000000,云南省,昆明市,本科,公办,云南大学滇池学院,102.680503999999999,24.978527000000000,036261c8739decdb79f796af,西山区,102.672587899999996,24.975801080000000,17.4011993
212,1529,563,1154,闽南科技学院,4135012992.000000000000000,福建省教育厅,泉州市,本科,民办,闽南科技学院(美林校区),118.410927000000001,24.980415000000001,2c0bd6c5d55a2baa43ab9ada,南安市,118.399499800000001,24.977138610000001,7.3271298
213,3049,1109,2454,昆明学院,4153011393.000000000000000,云南省,昆明市,本科,公办,昆明学院(洋浦校区),102.806005999999996,24.981207000000001,c53707a3b951a269631c6799,官渡区,102.797985199999999,24.978358940000000,104.5220032
214,3046,1107,2452,楚雄师范学院,4153011391.000000000000000,云南省,楚雄彝族自治州,本科,公办,楚雄师范学院(新校区),101.562532000000004,25.029513999999999,8fde79ccc49967be95ca0731,楚雄市,101.554609600000006,25.026711490000000,21.4169998
215,3044,1107,2452,楚雄师范学院,4153011391.000000000000000,云南省,楚雄彝族自治州,本科,公办,楚雄师范学院,101.555909999999997,25.032447999999999,442076466602ce16deee8bf5,楚雄市,101.548001700000000,25.029528639999999,17.7448997
216,3050,1109,2454,昆明学院,4153011393.000000000000000,云南省,昆明市,本科,公办,昆明学院(西华北路),102.686913000000004,25.035347000000002,d25e1bbab4eb3c135b109323,西山区,102.679019800000006,25.032526350000001,3.3031499
217,1494,554,1145,龙岩学院,4135011312.000000000000000,福建省,龙岩市,本科,公办,龙岩学院,117.029618999999997,25.035874000000000,61085211b88d72a1c51b750c,新罗区,117.018279699999994,25.032512560000001,56.1130981
218,3008,1096,2441,云南中医药大学,4153010680.000000000000000,云南省,昆明市,本科,公办,云南中医药大学(白塔校区),102.731260000000006,25.042750999999999,cc788fded9bd498b88fc0672,盘龙区,102.723387099999997,25.039416060000001,1.2051001
219,1528,563,1154,闽南科技学院,4135012992.000000000000000,福建省教育厅,泉州市,本科,民办,闽南科技学院(康美校区),118.487894999999995,25.040699000000000,4eb3b533d38df775430245d9,南安市,118.476616000000007,25.037633090000000,16.6956997
220,2998,1094,2439,昆明医科大学,4153010678.000000000000000,云南省,昆明市,本科,公办,昆明医科大学(平政校区),102.718271000000001,25.055501000000000,eed2af888218dfe0f8dc85c9,五华区,102.710420400000004,25.052199630000000,1.0410000
221,2989,1091,2436,昆明理工大学,4153010674.000000000000000,云南省,昆明市,本科,公办,昆明理工大学(新迎校区),102.738686999999999,25.057673000000001,21fe631fb5a2ea5ba9f0cdd5,盘龙区,102.730795200000003,25.054382270000001,32.2845993
222,2982,1090,2435,云南大学,4153010673.000000000000000,云南省,昆明市,本科,公办,云南大学,102.708573999999999,25.060198000000000,aa007afbf9e7448b882fb5a0,五华区,102.700719000000007,25.057008289999999,17.5825005
223,3036,1104,2449,云南艺术学院,4153010690.000000000000000,云南省,昆明市,本科,公办,云南艺术学院,102.680352999999997,25.061156000000000,8f7cab733bccffb74307c19a,五华区,102.672464899999994,25.058429520000001,5.2849998
224,3010,1097,2442,云南师范大学,4153010681.000000000000000,云南省,昆明市,本科,公办,云南师范大学(一二一西南联大校区),102.702934999999997,25.061451000000002,4cf8d24e6c7d13e59cf7790e,五华区,102.695072800000005,25.058350600000001,14.6027002
225,3038,1105,2450,云南民族大学,4153010691.000000000000000,云南省,昆明市,本科,公办,云南民族大学,102.709687000000002,25.064408000000000,7cba43f8a4226fe0f70e7775,五华区,102.701831600000006,25.061201570000001,7.3119602
226,2993,1093,2438,西南林业大学,4153010677.000000000000000,云南省,昆明市,本科,公办,西南林业大学(白龙校区),102.764992000000007,25.066115000000000,45e0ae30e6be58006cc02c53,盘龙区,102.756984900000006,25.063196619999999,71.6489029
227,2988,1091,2436,昆明理工大学,4153010674.000000000000000,云南省,昆明市,本科,公办,昆明理工大学(莲华校区),102.702742999999998,25.067934999999999,52fadfbc73546a10c6effb37,五华区,102.694877500000004,25.064836469999999,43.8050995
228,2575,939,2054,桂林理工大学,4145010596.000000000000000,广西壮族自治区,桂林市,本科,公办,桂林理工大学(雁山校区),110.305777000000006,25.069448000000001,545b946854e0cc671d1d113a,雁山区,110.294751700000006,25.066113340000001,83.4849014
229,3068,1117,2462,昆明医科大学海源学院,4153013332.000000000000000,云南省教育厅,昆明市,本科,民办,昆明医科大学海源学院,102.669661000000005,25.075507000000002,a119be6e88d89c3696ca07d3,五华区,102.661772499999998,25.072870500000001,7.7975702
230,3062,1114,2459,昆明理工大学津桥学院,4153013329.000000000000000,云南省教育厅,昆明市,本科,民办,昆明理工大学津桥学院(高新校区),102.660494999999997,25.078458000000001,40531082e1b6ef986e20b99f,五华区,102.652628100000001,25.075826289999998,10.3562002
231,3047,1108,2453,云南警官学院,4153011392.000000000000000,云南省,昆明市,本科,公办,云南警官学院,102.697812999999996,25.082211000000001,25db2f93b459638b2fb96d1a,五华区,102.689927800000007,25.079194500000000,26.9375992
232,3028,1103,2448,云南财经大学,4153010689.000000000000000,云南省,昆明市,本科,公办,云南财经大学,102.725048999999999,25.086668000000000,895936e3341c32019a00501e,五华区,102.717171600000000,25.083322639999999,37.4505997
233,3011,1097,2442,云南师范大学,4153010681.000000000000000,云南省,昆明市,本科,公办,云南师范大学(海屯路校区),102.654634999999999,25.086409000000000,6fddd7fd3387af023517dc48,五华区,102.646783600000006,25.083742149999999,21.5147991
234,3057,1111,2456,云南经济管理学院,4153012560.000000000000000,云南省教育厅,昆明市,本科,民办,云南经济管理学院(海源校区),102.655803000000006,25.092157000000000,cc6ab9b586969e7d940319ab,五华区,102.647940500000004,25.089496749999999,15.3310003
235,3030,1103,2448,云南财经大学,4153010689.000000000000000,云南省,昆明市,本科,公办,云南财经大学北院,102.727455000000006,25.094093000000001,dd5c0efe22f282e2c62ba17f,五华区,102.719566099999994,25.090741919999999,14.6468000
236,3067,1116,2461,昆明文理学院,4153013331.000000000000000,云南省教育厅,昆明市,本科,民办,昆明文理学院(龙泉校区),102.718721000000002,25.095790999999998,9ee392b80c4ecc40bbbd6304,五华区,102.710840200000007,25.092474939999999,19.5527992
237,2651,965,2080,桂林学院,4145013641.000000000000000,广西壮族自治区教育厅,桂林市,本科,民办,桂林学院,110.284788000000006,25.101196999999999,f2f15ffbad4b3f8b631c6740,雁山区,110.273798099999993,25.097724410000001,33.5446014
238,2594,944,2059,广西师范大学,4145010602.000000000000000,广西壮族自治区,桂林市,本科,公办,广西师范大学(雁山校区),110.295168000000004,25.100099000000000,14cd0270ddbbf7b003ec0148,雁山区,110.284158000000005,25.096647969999999,128.0690002
239,1513,558,1149,仰恩大学,4135011784.000000000000000,福建省教育厅,泉州市,本科,民办,仰恩大学,118.615137000000004,25.115691000000002,b7021bf843b4a9f9f4e73b0d,洛江区,118.604095400000006,25.112956709999999,111.7699966
240,3063,1114,2459,昆明理工大学津桥学院,4153013329.000000000000000,云南省教育厅,昆明市,本科,民办,昆明理工大学津桥学院(空港校区),103.004941000000002,25.128204000000000,b4027e8e95d82ea33b221c99,官渡区,102.996759299999994,25.125278460000001,29.3108997
241,2637,958,2073,桂林旅游学院,4145011837.000000000000000,广西壮族自治区,桂林市,本科,公办,桂林旅游学院(雁山校区),110.307261999999994,25.127625999999999,56e88cba76b39c64a5c7569c,雁山区,110.296194499999999,25.124298740000000,97.8520966
242,2991,1092,2437,云南农业大学,4153010676.000000000000000,云南省,昆明市,本科,公办,云南农业大学,102.755737999999994,25.134885000000001,369ed551758b5d0affa77874,盘龙区,102.747740600000000,25.131808140000000,83.7917023
243,3023,1101,2446,保山学院,4153010686.000000000000000,云南省,保山市,本科,公办,保山学院,99.167990000000003,25.140958999999999,4edf9fbfdd1364e9cc06a4ff,隆阳区,99.160521579999994,25.137979040000001,47.6002998
244,1482,550,1141,泉州师范学院,4135010399.000000000000000,福建省,泉州市,本科,公办,泉州师范学院(南安校区),118.311881999999997,25.192713999999999,08f1f1f51a54a1c988db730c,南安市,118.300663400000005,25.189204050000001,8.1350803
245,2592,943,2058,桂林医学院,4145010601.000000000000000,广西壮族自治区,桂林市,本科,公办,桂林医学院(临桂校区),110.168898999999996,25.230381000000001,23c39392688a133f4d776ef1,临桂区,110.157787799999994,25.226792809999999,50.1796989
246,2985,1090,2435,云南大学,4153010673.000000000000000,云南省,昆明市,本科,公办,云南大学滇池学院,103.009955000000005,25.236585000000002,e4b8a9ef48920a4feb56fa5d,嵩明县,103.001729299999994,25.233707530000000,33.1104012
247,3065,1115,2460,昆明城市学院,4153013330.000000000000000,云南省教育厅,昆明市,本科,民办,昆明城市学院(杨林校区),103.016345000000001,25.240506000000000,9386eb1c23a8cac341e1923a,嵩明县,103.008077999999998,25.237675750000001,33.7436981
248,3069,1117,2462,昆明医科大学海源学院,4153013332.000000000000000,云南省教育厅,昆明市,本科,民办,昆明医科大学海源学院,102.999483999999995,25.247482000000002,917a75bf8b5b2c8f02294fb4,嵩明县,102.991340300000005,25.244484889999999,41.9518013
249,3072,1119,2464,云南工商学院,4153013909.000000000000000,云南省教育厅,昆明市,本科,民办,云南工商学院,103.012137999999993,25.246732999999999,ecb0eb2e67929a19157643e8,嵩明县,103.003899899999993,25.243875379999999,59.2373009
250,3066,1116,2461,昆明文理学院,4153013331.000000000000000,云南省教育厅,昆明市,本科,民办,昆明文理学院(杨林校区),103.003843000000003,25.252009999999999,a1418eb4825bfe02ebe582e6,嵩明县,102.995668199999997,25.249068500000000,34.4570007
251,2638,958,2073,桂林旅游学院,4145011837.000000000000000,广西壮族自治区,桂林市,本科,公办,桂林旅游学院继续教育学院,110.327046999999993,25.261975000000000,707b9fa92a607989d518b784,七星区,110.315867400000002,25.258939980000001,0.3995940
252,2595,944,2059,广西师范大学,4145010602.000000000000000,广西壮族自治区,桂林市,本科,公办,广西师范大学(育才校区),110.333765999999997,25.271149000000001,68fb9b31f02dd5888bdb73e8,七星区,110.322559999999996,25.268190300000001,37.3781013
253,2573,938,2053,桂林电子科技大学,4145010595.000000000000000,广西壮族自治区,桂林市,本科,公办,桂林电子科技大学(西校区),110.332892000000001,25.286556000000001,9c46bc769d4872aa0b69d9df,七星区,110.321701200000007,25.283592710000001,5.2941499
254,2574,938,2053,桂林电子科技大学,4145010595.000000000000000,广西壮族自治区,桂林市,本科,公办,桂林电子科技大学西区家属区,110.331423000000001,25.287400999999999,843b4c3dde8e2242fbf0cba2,七星区,110.320239799999996,25.284423230000002,5.2721300
255,2576,939,2054,桂林理工大学,4145010596.000000000000000,广西壮族自治区,桂林市,本科,公办,桂林理工大学(屏风校区),110.323121000000000,25.286873000000000,8ace5bd3f19af471cae33c51,七星区,110.311983799999993,25.283789800000001,32.1343002
256,2636,957,2072,桂林航天工业学院,4145011825.000000000000000,广西壮族自治区,桂林市,本科,公办,桂林航天工业学院,110.377842999999999,25.288571999999998,e91f7a5ce1b5f579c27da2e8,七星区,110.366618599999995,25.285256879999999,68.3522034
257,2571,938,2053,桂林电子科技大学,4145010595.000000000000000,广西壮族自治区,桂林市,本科,公办,桂林电子科技大学(金鸡岭校区),110.344571000000002,25.289892999999999,c1c5577b076099ead6b74e4f,七星区,110.333336299999999,25.286986880000001,30.5660000
258,2593,943,2058,桂林医学院,4145010601.000000000000000,广西壮族自治区,桂林市,本科,公办,桂林医学院,110.317824000000002,25.296697999999999,881a28e719f71246f842b29e,七星区,110.306720200000001,25.293535670000001,9.4989595
259,2572,938,2053,桂林电子科技大学,4145010595.000000000000000,广西壮族自治区,桂林市,本科,公办,桂林电子科技大学(花江校区),110.422319999999999,25.317764000000000,1dfaeff91d04cb072902e1f9,灵川县,110.411090500000000,25.314224129999999,188.3580017
260,1512,557,1148,莆田学院,4135011498.000000000000000,福建省,莆田市,本科,公办,莆田学院体育学院,119.013782000000006,25.447603000000001,3c73549dd4f6798efda778e5,城厢区,119.002553500000005,25.444448680000001,5.0568700
261,3018,1099,2444,曲靖师范学院,4153010684.000000000000000,云南省,曲靖市,本科,公办,曲靖师范学院(古城校区),103.794456999999994,25.509878000000000,cac1d21a640d370e43afe630,麒麟区,103.785985499999995,25.506620150000000,5.2037601
262,1510,557,1148,莆田学院,4135011498.000000000000000,福建省,莆田市,本科,公办,莆田学院(紫霄校区),119.059640999999999,25.515065000000000,6d13b6c9acca482821022070,荔城区,119.048347800000002,25.511480989999999,54.5312996
263,3017,1099,2444,曲靖师范学院,4153010684.000000000000000,云南省,曲靖市,本科,公办,曲靖师范学院,103.757557000000006,25.528116000000001,7e8bd5c824f0456c41d63ee8,麒麟区,103.748954900000001,25.525356649999999,76.4527969
264,3001,1095,2440,大理大学,4153010679.000000000000000,云南省,大理白族自治州,本科,公办,大理大学(下关校区),100.219479000000007,25.611205999999999,d24f1e7276560d7df6c59c25,大理市,100.211905900000005,25.607983019999999,16.8607006
265,3079,1121,2466,滇西应用技术大学,4153014623.000000000000000,云南省,大理市,本科,公办,滇西应用技术大学,100.301747000000006,25.676653000000002,8c86bffa5debdc1e04fef57f,大理市,100.294143599999998,25.673610900000000,23.3663006
266,3000,1095,2440,大理大学,4153010679.000000000000000,云南省,大理白族自治州,本科,公办,大理大学,100.161979000000002,25.676203000000001,10b74c3050db4120fe0eb0d4,大理市,100.154202799999993,25.673358360000002,132.0119934
267,1564,576,1167,福建技术师范学院,4135014683.000000000000000,福建省,福州市,本科,公办,福建技术师范学院(五马山校区),119.384281999999999,25.710182000000000,892778260029928c6140a9df,福清市,119.372891899999999,25.706770720000002,16.0534000
268,1565,576,1167,福建技术师范学院,4135014683.000000000000000,福建省,福州市,本科,公办,福建技术师范学院(石竹山校区),119.317464999999999,25.710587000000000,43adea7e6eb8da805fd4fe20,福清市,119.306153899999998,25.707450649999998,19.1728992
269,2281,828,1774,湘南学院,4143010545.000000000000000,湖南省,郴州市,本科,公办,湘南学院,113.107714999999999,25.789994000000000,f6ca48a2e7a86559354aae78,苏仙区,113.095465000000004,25.787162410000001,52.5368004
270,2943,1072,2371,黔南民族师范学院,4152010670.000000000000000,贵州省,黔南布依族苗族自治州,本科,公办,黔南民族师范学院独山校区,107.548545000000004,25.797215999999999,c9532fd75e07377e5d17c370,独山县,107.537991700000006,25.794267450000000,16.6266994
271,1577,581,1222,江西理工大学,4136010407.000000000000000,江西省,赣州市,本科,公办,江西理工大学(三江校区),114.770071999999999,25.800870000000000,f545f9626502889cd23ce3e1,南康区,114.758642399999999,25.798098860000000,109.1740036
272,1601,589,1230,赣南师范大学,4136010418.000000000000000,江西省,赣州市,本科,公办,赣南师范大学(黄金校区),114.893039000000002,25.801790000000000,6f437239a5c294e7dbecedee,章贡区,114.881783900000002,25.799231310000000,101.2939987
273,1665,611,1252,赣南科技学院,4136013434.000000000000000,江西省,赣州市,本科,公办,赣南科技学院,114.924396000000002,25.843912000000000,d5fda0919eafd28680a00c7e,章贡区,114.913131199999995,25.841322250000001,35.5541992
274,1669,616,1257,赣南师范大学科技学院,4136013439.000000000000000,江西省教育厅,赣州市,本科,民办,赣南师范大学科技学院,114.937933999999998,25.855274999999999,5650dbed72d0a07df11937fa,章贡区,114.926713599999999,25.852453120000000,12.2559996
275,1576,581,1222,江西理工大学,4136010407.000000000000000,江西省,赣州市,本科,公办,江西理工大学(红旗校区),114.936671000000004,25.859943000000001,e5945cc1403fac772bb97c30,章贡区,114.925451100000004,25.857149310000000,28.3101006
276,1603,589,1230,赣南师范大学,4136010418.000000000000000,江西省,赣州市,本科,公办,赣南师范大学(白塔校区),114.939982000000001,25.906089999999999,daa16208dbc497b0354aae24,章贡区,114.928790599999999,25.903268940000000,11.1162004
277,1536,564,1155,福州工商学院,4135012993.000000000000000,福建省教育厅,福州市,本科,民办,福州工商学院,119.063322999999997,25.909865000000000,e02af4abab03d6ef0d0a7087,永泰县,119.051987800000006,25.906531170000001,51.6707001
278,1547,571,1162,福州外语外贸学院,4135013762.000000000000000,福建省教育厅,福州市,本科,民办,福州外语外贸学院,119.506353000000004,25.928822000000000,f2f9c17bf0f4907a17b54b65,长乐区,119.495177799999993,25.925667279999999,36.0537987
279,1543,566,1157,阳光学院,4135013468.000000000000000,福建省教育厅,福州市,本科,民办,阳光学院,119.455088000000003,26.009336999999999,bda1dbd22c92807c76e5b64e,马尾区,119.443660100000002,26.006583350000000,28.3546009
280,1505,556,1147,福建警察学院,4135011495.000000000000000,福建省,福州市,本科,公办,福建警察学院,119.322581000000000,26.031752999999998,3f7cf0886505506714948e65,仓山区,119.311248199999994,26.028914510000000,17.2910004
281,1471,546,1137,福建师范大学,4135010394.000000000000000,福建省,福州市,本科,公办,福建师范大学(旗山校区),119.217466999999999,26.031685000000000,8373d8334f1a8b9c246e9820,闽侯县,119.206112000000005,26.029082580000001,156.2649994
282,1472,546,1137,福建师范大学,4135010394.000000000000000,福建省,福州市,本科,公办,福建师范大学(仓山校区),119.315858000000006,26.041657000000001,3de5700e80481e10b72655c4,仓山区,119.304554600000003,26.038710859999998,24.1613007
283,1462,542,1133,福建农林大学,4135010389.000000000000000,福建省,福州市,本科,公办,福建农林大学(旗山校区),119.188357999999994,26.059370999999999,bcf081c4ba09638ba4c756fe,闽侯县,119.177020900000002,26.056265119999999,50.5407982
284,1475,547,1138,闽江学院,4135010395.000000000000000,福建省,福州市,本科,公办,闽江学院(工业路校区),119.285707000000002,26.071380999999999,680fb70316758d9c8ab98886,鼓楼区,119.274494300000001,26.068144390000000,5.8071699
285,1458,540,1131,福州大学,4135010386.000000000000000,福建省,福州市,本科,公办,福州大学(旗山校区),119.203481999999994,26.062197000000001,82f49536160288bb7f29bd76,闽侯县,119.192113000000006,26.059395930000001,164.5359955
286,1555,572,1163,福建江夏学院,4135013763.000000000000000,福建省,福州市,本科,公办,福建江夏学院(大学城校区),119.199710999999994,26.071293000000001,4ce10ce6f91b0ba1451a32ae,闽侯县,119.188344400000005,26.068422410000000,44.9583015
287,1467,544,1135,福建医科大学,4135010392.000000000000000,福建省,福州市,本科,公办,福建医科大学(台江校区),119.306496999999993,26.075405000000000,b7ea22d3cb80de2f4107c1d0,台江区,119.295218899999995,26.072324250000001,12.2462997
288,1474,547,1138,闽江学院,4135010395.000000000000000,福建省,福州市,本科,公办,闽江学院,119.176895000000002,26.072713000000000,5c56edd6ebd7c55aa0d230ae,闽侯县,119.165560799999994,26.069434860000001,121.2080002
289,1466,544,1135,福建医科大学,4135010392.000000000000000,福建省,福州市,本科,公办,福建医科大学(旗山校区),119.193275999999997,26.075187000000000,7c5e480bb9e69cb4acb22aae,闽侯县,119.181921799999998,26.072187190000001,57.1754990
290,1468,545,1136,福建中医药大学,4135010393.000000000000000,福建省,福州市,本科,公办,福建中医药大学(旗山校区),119.186356000000004,26.079516999999999,e3589c3c3411619cb2077dae,闽侯县,119.175013800000002,26.076386090000000,56.3642998
291,1497,555,1146,福建商学院,4135011313.000000000000000,福建省,福州市,本科,公办,福建商学院(马尾校区),119.511503000000005,26.080530000000000,e8d4b55cbb7534b1260bd0aa,马尾区,119.500336700000005,26.077413450000002,29.3456993
292,1461,542,1133,福建农林大学,4135010389.000000000000000,福建省,福州市,本科,公办,福建农林大学,119.243460999999996,26.088571000000002,b1c556e8c6f7820cb4265557,仓山区,119.232125499999995,26.085935809999999,109.2549973
293,1459,540,1131,福州大学,4135010386.000000000000000,福建省,福州市,本科,公办,福州大学(铜盘校区),119.268895000000001,26.110820000000000,50c675a810f88b6e89db73b6,鼓楼区,119.257682000000003,26.107766290000001,21.3602009
294,1499,555,1146,福建商学院,4135011313.000000000000000,福建省,福州市,本科,公办,福建商学院(鼓楼校区),119.297921000000002,26.124485000000000,1e85bfd30b3f4c4f49fd3fd8,鼓楼区,119.286712600000001,26.121339339999999,6.3514800
295,1506,556,1147,福建警察学院,4135011495.000000000000000,福建省,福州市,本科,公办,福建警察学院(荆溪校区),119.235325000000003,26.127160000000000,1c751899642c9f098715412d,闽侯县,119.223991100000006,26.124645290000000,11.5792999
296,2963,1080,2379,贵州黔南经济学院,4152013648.000000000000000,贵州省教育厅,黔南布依族苗族自治州,本科,民办,贵州黔南经济学院,106.654833999999994,26.147303999999998,c707d9a89d8ed3d39f09f701,惠水县,106.644769100000005,26.144796800000002,23.7607002
297,1489,553,1144,三明学院,4135011311.000000000000000,福建省,三明市,本科,公办,三明学院,117.570982000000001,26.198799999999999,606289fd4d77d333a20464cb,三元区,117.559539099999995,26.196284089999999,38.2150993
298,2302,833,1779,湖南科技学院,4143010551.000000000000000,湖南省,永州市,本科,公办,湖南科技学院,111.612915000000001,26.211772000000000,bff8fa7d32dddea0c9213daf,零陵区,111.601253299999996,26.208942820000001,56.7327995
299,1490,553,1144,三明学院,4135011311.000000000000000,福建省,三明市,本科,公办,三明学院(三元校区),117.607180999999997,26.239144000000000,4edf9fbff7e71e94cd06a48c,三元区,117.595905999999999,26.236237570000000,1.3292000
300,1559,574,1165,福州理工学院,4135013773.000000000000000,福建省教育厅,福州市,本科,民办,福州理工学院,119.477632999999997,26.245445000000000,82abe7e5a86f5bae59bbbc5b,连江县,119.466247300000006,26.242893509999998,23.0622997
301,1498,555,1146,福建商学院,4135011313.000000000000000,福建省,福州市,本科,公办,福建商学院(连江校区),119.470326000000000,26.245518000000001,0e5b6139dc9d709d601c67ff,连江县,119.458906299999995,26.243000590000001,39.4081993
302,2931,1069,2368,安顺学院,4152010667.000000000000000,贵州省,安顺市,本科,公办,安顺学院,105.907595000000001,26.249521000000001,93df0dc38bdbc656882fb5ea,西秀区,105.897730600000003,26.247415440000001,60.2397995
303,2932,1069,2368,安顺学院,4152010667.000000000000000,贵州省,安顺市,本科,公办,安顺学院(东校区),105.995816000000005,26.263300000000001,caf672c9216a3f77ca09f06b,西秀区,105.985855599999994,26.260729699999999,3.5913701
304,2967,1083,2382,贵阳人文科技学院,4152013651.000000000000000,贵州省教育厅,贵阳市,本科,民办,贵阳人文科技学院(大学城校区),106.640384999999995,26.375758000000001,61eaa11873b0b1000aa8d408,花溪区,106.630290700000003,26.373607679999999,26.6888008
305,2949,1074,2373,贵州民族大学,4152010672.000000000000000,贵州省,贵阳市,本科,公办,贵州民族大学(新校区),106.626311999999999,26.380752999999999,6cea90b1bc235eb30bccddeb,花溪区,106.616220600000005,26.378699760000000,98.2950974
306,2944,1073,2372,贵州财经大学,4152010671.000000000000000,贵州省,贵阳市,本科,公办,贵州财经大学,106.648746000000003,26.384098999999999,0c8fce7205106300213bf289,花溪区,106.638659899999993,26.381827489999999,365.2789917
307,2923,1064,2363,贵州中医药大学,4152010662.000000000000000,贵州省,贵阳市,本科,公办,贵州中医药大学(花溪新校区),106.626434000000003,26.389441000000001,dfd9617a8576c16b81a12eee,花溪区,106.616337999999999,26.387390210000000,81.9010010
308,2924,1065,2364,贵州师范大学,4152010663.000000000000000,贵州省,贵阳市,本科,公办,贵州师范大学(东校区),106.642336999999998,26.389192999999999,5a642ee611d4bcb67ec876cc,花溪区,106.632239299999995,26.387021619999999,123.4479980
309,2966,1082,2381,贵阳信息科技学院,4152013650.000000000000000,贵州省教育厅,贵阳市,本科,民办,贵阳信息科技学院(花溪校区),106.642354999999995,26.400504000000002,2508e3682ba299a7d618b709,花溪区,106.632247300000003,26.398334479999999,38.8235016
310,2911,1061,2360,贵州大学,4152010657.000000000000000,贵州省,贵阳市,本科,公办,贵州大学(花溪南校区),106.678173000000001,26.428049000000001,bcaebff8a6bb832ac9e33cd5,花溪区,106.668077800000006,26.425317239999998,47.9034996
311,2910,1061,2360,贵州大学,4152010657.000000000000000,贵州省,贵阳市,本科,公办,贵州大学(花溪东校区),106.678822999999994,26.450441999999999,ce7bfe9110bf1508e5e965a6,花溪区,106.668729700000000,26.447712939999999,42.4263000
312,2909,1061,2360,贵州大学,4152010657.000000000000000,贵州省,贵阳市,本科,公办,贵州大学(西校区),106.665940000000006,26.452024999999999,8158cc1fad49f276c1f1cfba,花溪区,106.655846800000006,26.449463590000001,162.4409943
313,2948,1074,2373,贵州民族大学,4152010672.000000000000000,贵州省,贵阳市,本科,公办,贵州民族大学,106.676709000000002,26.470687000000002,24d017cadde82507d4851f32,花溪区,106.666635299999996,26.467988420000001,37.4802017
314,2938,1071,2370,凯里学院,4152010669.000000000000000,贵州省,黔东南苗族侗族自治州,本科,公办,凯里学院,107.898747999999998,26.530581999999999,befdb292eed8e1e08715416d,凯里市,107.888290799999993,26.527979070000001,61.9677010
315,2955,1075,2374,贵阳学院,4152010976.000000000000000,贵州省,贵阳市,本科,公办,贵阳学院(软件分院),106.780056000000002,26.562131999999998,0f87a05ccd7dc602138824b3,南明区,106.769724999999994,26.559569929999999,34.6400986
316,2971,1086,2385,贵州医科大学神奇民族医药学院,4152013676.000000000000000,贵州省教育厅,贵阳市,本科,民办,贵州医科大学神奇民族医药学院,106.788179999999997,26.567930000000000,bf8f8a651e0c5adf841541cf,南明区,106.777884599999993,26.565251880000002,15.5356998
317,2976,1088,2387,贵州理工学院,4152014440.000000000000000,贵州省,贵阳市,本科,公办,贵州理工学院(蔡家关校区),106.664627999999993,26.567029000000002,812cc57549a17252220220e7,云岩区,106.654524100000003,26.564516059999999,40.4649010
318,2849,1037,2255,攀枝花学院,4151011360.000000000000000,四川省,攀枝花市,本科,公办,攀枝花学院,101.732176999999993,26.573981000000000,535939c78acaafd4f13cba92,东区,101.724068299999999,26.571607210000000,42.4135017
319,2922,1064,2363,贵州中医药大学,4152010662.000000000000000,贵州省,贵阳市,本科,公办,贵州中医药大学(甲秀校区),106.730058999999997,26.579885000000001,f3c2373c4d723e53d32dd6be,南明区,106.719716700000006,26.577606849999999,6.4125400
320,2956,1076,2375,六盘水师范学院,4152010977.000000000000000,贵州省,六盘水市,本科,公办,六盘水师范学院,104.824934999999996,26.581310999999999,852c9f4f647692226d20b9f7,钟山区,104.815799100000007,26.579213849999999,56.5803986
321,2917,1062,2361,贵州医科大学,4152010660.000000000000000,贵州省,贵阳市,本科,公办,贵州医科大学,106.721791999999994,26.604247999999998,118c4a0eb68d8e7fa2d230e4,云岩区,106.711516799999998,26.601867150000000,12.6917000
322,2968,1084,2383,贵阳康养职业大学,4152016206.000000000000000,贵州省,贵阳市,本科,公办,贵阳康养职业大学,106.610606000000004,26.619729000000000,af5157b6ffe340607069d3d3,观山湖区,106.600544200000002,26.617637760000001,15.1759996
323,1480,549,1140,宁德师范学院,4135010398.000000000000000,福建省,宁德市,本科,公办,宁德师范学院(蕉城校区),119.543965000000000,26.643711000000000,5b16577b51566aff2efaa7af,蕉城区,119.532889400000002,26.640951999999999,10.3704004
324,2972,1087,2386,贵州师范学院,4152014223.000000000000000,贵州省,贵阳市,本科,公办,贵州师范学院,106.803787999999997,26.649104999999999,a945555b5b2ff396deee8bd3,乌当区,106.793544900000001,26.646324159999999,31.6791992
325,1479,549,1140,宁德师范学院,4135010398.000000000000000,福建省,宁德市,本科,公办,宁德师范学院(新校区),119.600014999999999,26.662019000000001,b4030cf9e428f67581a12ee9,蕉城区,119.588938299999995,26.659836519999999,60.1688004
326,2925,1065,2364,贵州师范大学,4152010663.000000000000000,贵州省,贵阳市,本科,公办,贵州师范大学(白云校区),106.630568999999994,26.720403999999998,19651c5e84a04cf8da2f28f6,白云区,106.620448800000005,26.718399920000000,30.8381004
327,2957,1077,2376,贵州商学院,4152011731.000000000000000,贵州省,贵阳市,本科,公办,贵州商学院(白云校区),106.635294999999999,26.732227000000002,73ace64ba531920d8a36ee7d,白云区,106.625178399999996,26.730192939999998,39.1114998
328,2287,829,1775,衡阳师范学院,4143010546.000000000000000,湖南省,衡阳市,本科,公办,衡阳师范学院(西校区),112.632890000000003,26.868172000000001,ccd1c7f87c4af995eedfca79,雁峰区,112.621093200000004,26.866089410000001,29.6609001
329,2330,841,1787,湖南工学院,4143011528.000000000000000,湖南省,衡阳市,本科,公办,湖南工学院,112.618767000000005,26.882712999999999,03075a123714b0b742d63eba,雁峰区,112.606971799999997,26.880625519999999,8.9853001
330,2316,836,1782,南华大学,4143010555.000000000000000,湖南省,衡阳市,本科,公办,南华大学(雨母校区),112.523623999999998,26.885217999999998,cc0849a05b90c350940319fa,蒸湘区,112.511695900000007,26.882882349999999,81.9217987
331,2286,829,1775,衡阳师范学院,4143010546.000000000000000,湖南省,衡阳市,本科,公办,衡阳师范学院(东校区),112.683060999999995,26.887122999999999,3be122e130328a521ff74daf,珠晖区,112.671303899999998,26.884301810000000,91.8099976
332,2328,841,1787,湖南工学院,4143011528.000000000000000,湖南省,衡阳市,本科,公办,湖南工学院,112.691249999999997,26.888518999999999,3edc30c335e24ca307026f0b,珠晖区,112.679471100000001,26.885686539999998,71.5930023
333,2372,867,1813,湖南交通工程学院,4143013924.000000000000000,湖南省教育厅,衡阳市,本科,民办,湖南交通工程学院,112.510977999999994,26.920213000000000,33430c6a934ba530725e807a,蒸湘区,112.498957500000003,26.917944360000000,26.3045998
334,3061,1113,2458,丽江文化旅游学院,4153013328.000000000000000,云南省教育厅,丽江市,本科,民办,丽江文化旅游学院,100.237128999999996,26.921301000000000,a5bf31f27e5a5612fbf0cb88,古城区,100.229476000000005,26.918841570000001,55.6594009
335,1611,590,1231,井冈山大学,4136010419.000000000000000,江西省,吉安市,本科,公办,井冈山大学临床医学院,114.983074999999999,27.110866000000001,86156b3985c4e708ab175a90,吉州区,114.971728999999996,27.108061370000001,3.4568701
336,1606,590,1231,井冈山大学,4136010419.000000000000000,江西省,吉安市,本科,公办,井冈山大学,115.038876999999999,27.117775000000002,5ffb181684cad75c6f4760e3,青原区,115.027216300000006,27.115302549999999,139.8880005
337,2288,830,1776,邵阳学院,4143010547.000000000000000,湖南省,邵阳市,本科,公办,邵阳学院(七里坪校区),111.448390000000003,27.206648999999999,52a0b1579d42a3ff0b69d92c,大祥区,111.436253100000002,27.203978440000000,91.9523010
338,2289,830,1776,邵阳学院,4143010547.000000000000000,湖南省,邵阳市,本科,公办,邵阳学院(李子园校区),111.480029999999999,27.231387999999999,519b6a7a1ab234d32b11d102,大祥区,111.468058400000004,27.228323929999998,14.7798004
339,2935,1070,2369,贵州工程应用技术学院,4152010668.000000000000000,贵州省,毕节市,本科,公办,贵州工程应用技术学院(东区),105.322891999999996,27.299365999999999,4b1db46902e94a3df942b229,七星关区,105.313033899999994,27.296901219999999,21.4228001
340,3013,1098,2443,昭通学院,4153010683.000000000000000,云南省,昭通市,本科,公办,昭通学院,103.746519000000006,27.364204000000001,76909ddcb12999abf2193700,昭阳区,103.737820999999997,27.361919730000000,30.2425003
341,2348,847,1793,湖南医药学院,4143012214.000000000000000,湖南省,怀化市,本科,公办,湖南医药学院,110.007403999999994,27.545152000000002,8a035045e9f5af214afd3f25,鹤城区,109.996195000000000,27.542627629999998,15.6426001
342,2351,847,1793,湖南医药学院,4143012214.000000000000000,湖南省,怀化市,本科,公办,湖南医药学院(总医院),110.003900000000002,27.549536000000000,9ee7cc78d32e9e7016c905f0,鹤城区,109.992694099999994,27.547074230000000,10.1871004
343,2293,831,1777,怀化学院,4143010548.000000000000000,湖南省,怀化市,本科,公办,怀化学院(西校区),110.029521000000003,27.579162000000000,2697c989d227eaf30869d9dc,鹤城区,110.018345900000000,27.576216920000000,22.0548000
344,2294,831,1777,怀化学院,4143010548.000000000000000,湖南省,怀化市,本科,公办,怀化学院(东校区),110.050415999999998,27.585909999999998,3da907f3c9442a53b320a8f0,鹤城区,110.039204600000005,27.582793230000000,39.4781990
345,2349,847,1793,湖南医药学院,4143012214.000000000000000,湖南省,怀化市,本科,公办,湖南医药学院新校区,110.061432999999994,27.591488999999999,23c53d48e9fe20056849f35c,鹤城区,110.050168099999993,27.588435789999998,70.9851990
346,1622,594,1235,萍乡学院,4136010895.000000000000000,江西省,萍乡市,本科,公办,萍乡学院,113.887090999999998,27.635124000000001,ffd6d4035f4b418f17b54be8,安源区,113.875399200000004,27.632217780000001,48.8465004
347,2342,844,1790,湖南工业大学,4143011535.000000000000000,湖南省,株洲市,本科,公办,湖南工业大学醴陵陶瓷学院,113.545626999999996,27.696207000000001,05d9864d8f98b3f81b94c6b4,醴陵市,113.533666199999999,27.693402670000001,19.4048004
348,2926,1066,2365,遵义师范学院,4152010664.000000000000000,贵州省,遵义市,本科,公办,遵义师范学院,107.059700000000007,27.714174000000000,b6c8c0b29f43ade1abf72972,红花岗区,107.049023399999996,27.711153759999998,61.0912018
349,2308,834,1780,湖南人文科技学院,4143010553.000000000000000,湖南省,娄底市,本科,公办,湖南人文科技学院,112.009313000000006,27.716925000000000,e85e2527128e852d95f08c0f,娄星区,111.997242700000001,27.714442640000001,54.4420013
350,2969,1085,2384,遵义医科大学医学与科技学院,4152013653.000000000000000,贵州省教育厅,遵义市,本科,民办,遵义医科大学医学与科技学院,107.093602000000004,27.728346999999999,6c19a5a09b6b2196cafa5fc2,红花岗区,107.082704899999996,27.725775179999999,25.6240997
351,2919,1063,2362,遵义医科大学,4152010661.000000000000000,贵州省,遵义市,本科,公办,遵义医科大学(新蒲校区),107.076266000000004,27.727530000000002,028e182f6adc11f582288ac2,红花岗区,107.065468400000000,27.724722180000001,105.6790009
352,1477,548,1139,武夷学院,4135010397.000000000000000,福建省,南平市,本科,公办,武夷学院,118.010510999999994,27.734178000000000,10ed32b4c52718be871541f5,武夷山市,117.998888800000003,27.731646000000001,100.8639984
353,2980,1089,2388,茅台学院,4152014625.000000000000000,贵州省教育厅,遵义市,本科,民办,茅台学院,106.340638999999996,27.745508999999998,8a1b263b2a22a1f3735e8096,仁怀市,106.330393299999997,27.742539940000000,76.1326981
354,1645,600,1241,江西工程学院,4136012766.000000000000000,江西省教育厅,新余市,本科,民办,江西工程学院(仙女湖校区),114.850562999999994,27.782333999999999,58317d880db3955ea5da39b4,渝水区,114.839234000000005,27.779384409999999,50.9864006
355,2927,1067,2366,铜仁学院,4152010665.000000000000000,贵州省,铜仁市,本科,公办,铜仁学院(新校区),109.228578999999996,27.792763999999998,3a0a78bd3e3708fb63180923,碧江区,109.217567599999995,27.789955530000000,43.4413986
356,1595,588,1229,宜春学院,4136010417.000000000000000,江西省,宜春市,本科,公办,宜春学院,114.363720000000001,27.798296000000001,08fc93dff3d62e919a68b48f,袁州区,114.352028000000004,27.795102270000001,53.0635986
357,1644,600,1241,江西工程学院,4136012766.000000000000000,江西省教育厅,新余市,本科,民办,江西工程学院(天工校区),114.898250000000004,27.815221999999999,981bb0528c8f838c09f5eb4c,渝水区,114.886851899999996,27.812997230000001,43.5275993
358,2326,839,1785,湖南工程学院,4143011342.000000000000000,湖南省,湘潭市,本科,公办,湖南工程学院,112.934220999999994,27.819296000000001,8db9d1aa26fd60fbb75f1ef3,岳塘区,112.922428199999999,27.816466230000000,15.0487003
359,2340,844,1790,湖南工业大学,4143011535.000000000000000,湖南省,株洲市,本科,公办,湖南工业大学,113.114148999999998,27.823865999999999,90d241e435752c5715a19014,天元区,113.101740800000002,27.821297580000000,128.0670013
360,2341,844,1790,湖南工业大学,4143011535.000000000000000,湖南省,株洲市,本科,公办,湖南工业大学(河东校区),113.178600000000003,27.836531999999998,84384e56d5e1b63932870af1,荷塘区,113.166401600000000,27.833456770000002,15.4784002
361,2786,1019,2237,西昌学院,4151010628.000000000000000,四川省,凉山彝族自治州,本科,公办,西昌学院(邛海校区),102.271624000000003,27.851437000000001,937a8dd4971385852fe67b92,西昌市,102.263648000000003,27.848786420000000,13.4623003
362,1293,473,940,温州医科大学仁济学院,4133013284.000000000000000,浙江省教育厅,温州市,本科,民办,温州医科大学仁济学院(洞头校区),121.141407999999998,27.853256999999999,ad8efcff37fa60653be4a689,洞头区,121.130497000000005,27.850651289999998,14.6615000
363,2325,839,1785,湖南工程学院,4143011342.000000000000000,湖南省,湘潭市,本科,公办,湖南工程学院(主校区),112.939516999999995,27.853052000000002,d14917ce30d1f801b13c815d,岳塘区,112.927675800000003,27.850264110000001,49.2979012
364,1637,598,1239,新余学院,4136011508.000000000000000,江西省,新余市,本科,公办,新余学院,115.002352999999999,27.863693999999999,9d7f5b3301901161b1077d89,渝水区,114.990778500000005,27.861105720000001,102.7600021
365,2788,1019,2237,西昌学院,4151010628.000000000000000,四川省,凉山彝族自治州,本科,公办,西昌学院继续教育学院,102.260953999999998,27.896605999999998,be1ea5efd67bbbbe14948e6c,西昌市,102.253014600000000,27.893820330000000,0.3709650
366,2238,817,1763,湘潭大学,4143010530.000000000000000,湖南省,湘潭市,本科,公办,湘潭大学,112.870633999999995,27.887929000000000,51afe2440baf9f45acee7a8b,雨湖区,112.858632400000005,27.885717560000000,179.8410034
367,2787,1019,2237,西昌学院,4151010628.000000000000000,四川省,凉山彝族自治州,本科,公办,西昌学院(西校区),102.267244000000005,27.907299999999999,eebd3f24b31a378996ca075f,西昌市,102.259292299999998,27.904597689999999,3.7429500
368,2376,868,1814,湖南软件职业技术大学,4143013925.000000000000000,湖南省教育厅,湘潭市,本科,民办,湖南软件职业技术大学(和平校区),112.937141999999994,27.912716000000000,8fde79cce8794bbc95ca0753,湘潭,112.925319700000003,27.909919739999999,36.6426010
369,2259,821,1767,湖南科技大学,4143010534.000000000000000,湖南省,湘潭市,本科,公办,湖南科技大学,112.925998000000007,27.910547999999999,74c933fb47b3b55e9f82eab0,雨湖区,112.914199900000000,27.907708700000001,185.3609924
370,1309,483,950,温州商学院,4133013637.000000000000000,浙江省教育厅,温州市,本科,民办,温州商学院罗山书院,120.691271999999998,27.917826000000002,b6bb6db47b0042b6283a9ff3,瓯海区,120.680743199999995,27.915229010000001,4.7845998
371,1217,445,912,温州大学,4133010351.000000000000000,浙江省,温州市,本科,公办,温州大学(茶山南校区),120.701725999999994,27.924047000000002,646ddc84bde205fafbdc85e5,瓯海区,120.691226200000003,27.921237110000000,64.8731003
372,1328,491,958,温州肯恩大学,4133016405.000000000000000,浙江省教育厅,温州市,本科,中外合作办学,温州肯恩大学,120.659420999999995,27.923659000000001,39af74c51219b84bf32d83f1,瓯海区,120.648902399999997,27.921362720000001,43.2589989
373,1218,445,912,温州大学,4133010351.000000000000000,浙江省,温州市,本科,公办,温州大学(北校区),120.710182000000003,27.932672000000000,550fd5f94120ad7a921fc9b0,瓯海区,120.699702099999996,27.929709960000000,22.2887993
374,1182,438,905,温州医科大学,4133010343.000000000000000,浙江省,温州市,本科,公办,温州医科大学(茶山校区),120.717326000000000,27.931535000000000,c165340593d5bb7aab175a5c,瓯海区,120.706853600000002,27.928478320000000,45.6930008
375,1220,445,912,温州大学,4133010351.000000000000000,浙江省,温州市,本科,公办,温州大学北校区瓯江学院,120.713729999999998,27.936715000000000,0a7e0da22e1213301d1d11cb,瓯海区,120.703254900000005,27.933701700000000,16.0032005
376,2785,1019,2237,西昌学院,4151010628.000000000000000,四川省,凉山彝族自治州,本科,公办,西昌学院(安宁校区),102.219488999999996,27.952338999999998,b749a3031bd5534016a190a9,西昌市,102.211483900000005,27.949718390000001,50.4290009
377,1571,579,1220,东华理工大学,4136010405.000000000000000,江西省,抚州市,本科,公办,东华理工大学南区,116.359815999999995,27.986405000000001,c8106961335d43a4fd0eb09e,临川区,116.348243600000004,27.983824880000000,7.3390002
378,2355,853,1799,湘潭理工学院,4143012651.000000000000000,湖南省教育厅,湘潭市,本科,民办,湘潭理工学院,112.963752999999997,27.985858000000000,7d09615caf48245828201a45,雨湖区,112.951743199999996,27.983438939999999,75.2893982
379,1219,445,912,温州大学,4133010351.000000000000000,浙江省,温州市,本科,公办,温州大学继续教育学院,120.691333000000000,28.012713000000002,6bb4b7e27ecc117fd72ce2de,鹿城区,120.680773599999995,28.010124380000001,6.5848498
380,1183,438,905,温州医科大学,4133010343.000000000000000,浙江省,温州市,本科,公办,温州医科大学(学院路校区),120.679233999999994,28.013667999999999,0b8af523963bd5b3a7da39be,鹿城区,120.668655999999999,28.011290540000001,11.6563997
381,2260,822,1768,长沙理工大学,4143010536.000000000000000,湖南省,长沙市,本科,公办,长沙理工大学(云塘校区),113.015628000000007,28.073468999999999,afe00e27c84a89804afd3fdc,雨花区,113.003491199999999,28.070817670000000,123.9509964
382,2344,845,1791,湖南女子学院,4143011538.000000000000000,湖南省,长沙市,本科,公办,湖南女子学院,113.014615000000006,28.121673999999999,38097f0d0104f8d99ee32101,雨花区,113.002443299999996,28.119041630000002,23.1910992
383,2269,825,1771,湖南中医药大学,4143010541.000000000000000,湖南省,长沙市,本科,公办,湖南中医药大学,112.900746999999996,28.135338999999998,e940cd2f96661a97b6f42f65,岳麓区,112.888859199999999,28.132792110000000,62.0941010
384,2267,824,1770,中南林业科技大学,4143010538.000000000000000,湖南省,长沙市,本科,公办,中南林业科技大学,113.001570000000001,28.137339999999998,6a97ae603d582590364aae1c,天心区,112.989404300000004,28.134956389999999,66.7904968
385,2253,820,1766,中南大学,4143010533.000000000000000,教育部,长沙市,本科,公办,中南大学(铁道校区),112.998124000000004,28.145605000000000,7763d4807dd6180ccc06a419,天心区,112.985968499999998,28.143273579999999,36.1054993
386,2261,822,1768,长沙理工大学,4143010536.000000000000000,湖南省,长沙市,本科,公办,长沙理工大学(金盆岭校区),112.983119000000002,28.158200000000001,e0389ba1716abf6c8f1a8927,天心区,112.971012999999999,28.155970450000002,61.1679993
387,2252,820,1766,中南大学,4143010533.000000000000000,教育部,长沙市,本科,公办,中南大学(新校区),112.947534000000005,28.154546000000000,da169dbd818ca83e471a3245,岳麓区,112.935643400000004,28.151904620000000,118.4359970
388,2270,825,1771,湖南中医药大学,4143010541.000000000000000,湖南省,长沙市,本科,公办,湖南中医药大学(东塘校区),113.001886999999996,28.168433000000000,fca402e6e492bfaec156aced,雨花区,112.989744900000005,28.166053139999999,6.5259399
389,2251,820,1766,中南大学,4143010533.000000000000000,教育部,长沙市,本科,公办,中南大学(南校区),112.943139000000002,28.166354999999999,9b6f209382d78fb95a3ac8e8,岳麓区,112.931280599999994,28.163657799999999,40.2939987
390,2277,826,1772,湖南师范大学,4143010542.000000000000000,湖南省,长沙市,本科,公办,湖南师范大学(南院校区),112.946050999999997,28.170646000000001,ec47a0a817608339cae33c75,岳麓区,112.934178099999997,28.167987380000000,10.2608004
391,2250,820,1766,中南大学,4143010533.000000000000000,教育部,长沙市,本科,公办,中南大学,112.934196999999998,28.177199999999999,c667e2aca45ae5dec26c14dc,岳麓区,112.922377499999996,28.174420489999999,82.0863037
392,2346,846,1792,湖南第一师范学院,4143012034.000000000000000,湖南省,长沙市,本科,公办,湖南第一师范学院(城南书院校区),112.979155000000006,28.181525000000001,c8eca269009ed7c1ab059d30,天心区,112.967072000000002,28.179289480000001,6.7738900
393,2246,819,1765,湖南大学,4143010532.000000000000000,教育部,长沙市,本科,公办,湖南大学,112.950693000000001,28.186050999999999,a88d06ec39126e76ae31e5e8,岳麓区,112.938788900000006,28.183460409999999,67.7534027
394,2263,823,1769,湖南农业大学,4143010537.000000000000000,湖南省,长沙市,本科,公办,湖南农业大学,113.090024999999997,28.186060000000001,cfb24fe8cbbd1eee4bcc4a08,芙蓉区,113.077624200000002,28.183458680000001,112.9380035
395,2273,826,1772,湖南师范大学,4143010542.000000000000000,湖南省,长沙市,本科,公办,湖南师范大学,112.955960000000005,28.193113000000000,262eac09da74ff17a5da392b,岳麓区,112.944015899999997,28.190604319999998,71.4786987
396,2345,846,1792,湖南第一师范学院,4143012034.000000000000000,湖南省,长沙市,本科,公办,湖南第一师范学院,112.873970000000000,28.201480000000000,3c0ea7c5ce79f59cfbf0cb0b,岳麓区,112.861972199999997,28.199300770000001,58.0676003
397,2247,819,1765,湖南大学,4143010532.000000000000000,教育部,长沙市,本科,公办,湖南大学(财院校区),112.938057000000001,28.204440000000002,75d54c54ef1e0ffaa2d2307c,岳麓区,112.926203900000004,28.201686240000001,21.7873993
398,2276,826,1772,湖南师范大学,4143010542.000000000000000,湖南省,长沙市,本科,公办,湖南师范大学(张公岭校区),113.072619000000003,28.211987000000001,cc0849a058fac05094031960,芙蓉区,113.060295499999995,28.209114230000001,5.8899202
399,2353,848,1794,湖南涉外经济学院,4143012303.000000000000000,湖南省教育厅,长沙市,本科,民办,湖南涉外经济学院,112.882351000000000,28.207865999999999,095efdf71360fab62b11d1b9,岳麓区,112.870377300000001,28.205611999999999,59.8973007
400,2332,842,1788,湖南财政经济学院,4143011532.000000000000000,湖南省,长沙市,本科,公办,湖南财政经济学院,112.931337999999997,28.210612000000001,533936567b59a1c9e856fa42,岳麓区,112.919499700000003,28.207813829999999,31.5335999
401,2334,842,1788,湖南财政经济学院,4143011532.000000000000000,湖南省,长沙市,本科,公办,湖南财政经济学院(雷锋学院),112.803944000000001,28.217877999999999,a658d19122302ab21fe9990a,望城区,112.791975199999996,28.214925569999998,7.0313301
402,2278,826,1772,湖南师范大学,4143010542.000000000000000,湖南省,长沙市,本科,公办,湖南师范大学医学院,112.942153000000005,28.222007999999999,bcad4d221ab95478a6da39e6,岳麓区,112.930263999999994,28.219293120000000,9.3682404
403,2254,820,1766,中南大学,4143010533.000000000000000,教育部,长沙市,本科,公办,中南大学湘雅医学院,112.949296000000004,28.226194000000000,2f3aaf766dfccc37e81e9781,岳麓区,112.937363899999994,28.223574859999999,15.3550997
404,2311,835,1781,湖南工商大学,4143010554.000000000000000,湖南省,长沙市,本科,公办,湖南工商大学,112.925736999999998,28.225764000000002,8762a323fa3e511cae080f4f,岳麓区,112.913894200000001,28.222956210000000,40.8548012
405,2336,843,1789,湖南警察学院,4143011534.000000000000000,湖南省,长沙市,本科,公办,湖南警察学院,113.136768000000004,28.228708000000001,47b7b24e155fd7f6d13ce3e6,长沙县,113.124378800000002,28.225878130000002,36.3848000
406,2324,838,1784,长沙学院,4143011077.000000000000000,湖南省,长沙市,本科,公办,长沙学院,113.036201000000005,28.252655000000001,67dd46c020bc9ce7c71b751b,开福区,113.024027599999997,28.249641300000000,92.7034988
407,2365,864,1810,长沙师范学院,4143013806.000000000000000,湖南省,长沙市,本科,公办,长沙师范学院,113.090103999999997,28.262152000000000,d5464cf881abad57fda778ff,长沙县,113.077675700000000,28.259546889999999,10.7516003
408,2240,818,1764,吉首大学,4143010531.000000000000000,湖南省,湘西土家族苗族自治州,本科,公办,吉首大学,109.731387999999995,28.293268999999999,7127c80a3a97daf2c356ac1f,吉首市,109.720134000000002,28.290911730000001,36.1352005
409,2321,837,1783,长沙医学院,4143010823.000000000000000,湖南省教育厅,长沙市,本科,民办,长沙医学院,112.880799999999994,28.302190000000000,a47e3eaad6bb6ff9400245d4,望城区,112.868832400000002,28.299955929999999,50.3168983
410,2264,823,1769,湖南农业大学,4143010537.000000000000000,湖南省,长沙市,本科,公办,湖南农业大学,113.841042999999999,28.309918000000000,a955ad006a80c45a128824f8,浏阳市,113.829071799999994,28.307602719999998,1.7928600
411,2312,835,1781,湖南工商大学,4143010554.000000000000000,湖南省,长沙市,本科,公办,湖南工商大学(北校区),112.884276000000000,28.312158000000000,50f7d146fe1829c472210be1,望城区,112.872317199999998,28.309880020000001,27.2266006
412,2241,818,1764,吉首大学,4143010531.000000000000000,湖南省,湘西土家族苗族自治州,本科,公办,吉首大学(老校区),109.761567999999997,28.314917000000001,e132aa826a6894a3ad31e5dc,吉首市,109.750283100000004,28.312539500000000,8.7831297
413,2371,866,1812,湖南信息学院,4143013836.000000000000000,湖南省教育厅,长沙市,本科,民办,湖南信息学院,113.092252000000002,28.325883000000001,4baf355d04f70ab82b3a9ffe,长沙县,113.079812700000005,28.323299740000000,61.6873016
414,2360,856,1802,中南林业科技大学涉外学院,4143012656.000000000000000,湖南省教育厅,长沙市,本科,民办,中南林业科技大学涉外学院,112.917243999999997,28.364756000000000,fb62d9e1c49285eb1329356a,望城区,112.905386199999995,28.361979160000001,19.4001999
415,1594,587,1228,上饶师范学院,4136010416.000000000000000,江西省,上饶市,本科,公办,上饶师范学院,117.976912999999996,28.423034999999999,2ad32cc36dfc038f9c95de8c,信州区,117.965482499999993,28.420103380000000,47.8978004
416,1224,446,913,丽水学院,4133010352.000000000000000,浙江省,丽水市,本科,公办,丽水学院继续教育学院,119.904763000000003,28.462147000000002,80f6f0598f58350d2b3a9f6f,莲都区,119.893878200000003,28.459353170000000,1.9805599
417,1651,603,1244,江西服装学院,4136013418.000000000000000,江西省教育厅,南昌市,本科,民办,江西服装学院,115.957696999999996,28.460360999999999,14b8f8585ee0bf11a8059df8,南昌县,115.946326499999998,28.457803960000000,66.7746964
418,1221,446,913,丽水学院,4133010352.000000000000000,浙江省,丽水市,本科,公办,丽水学院,119.909827000000007,28.465793000000001,cdef4edf5104f94f28d7ab25,莲都区,119.898925399999996,28.463082929999999,59.0514984
419,2327,840,1786,湖南城市学院,4143011527.000000000000000,湖南省,益阳市,本科,公办,湖南城市学院,112.393670000000000,28.545414999999998,5ffb1816648d775f6f47602b,赫山区,112.381362999999993,28.542853740000002,84.9299011
420,1668,614,1255,南昌医学院,4136013437.000000000000000,江西省,南昌市,本科,公办,南昌医学院,115.898751000000004,28.579704000000000,8711af43b329cde8b8bd63a3,南昌县,115.887405599999994,28.577078650000001,26.6604004
421,1654,605,1246,南昌工学院,4136013421.000000000000000,江西省教育厅,南昌市,本科,民办,南昌工学院,115.766122999999993,28.616218000000000,7e6b56afb6cfb7999e82eae3,红谷滩区,115.754465600000003,28.613617489999999,72.5376968
422,1629,595,1236,江西科技师范大学,4136011318.000000000000000,江西省,南昌市,本科,公办,江西科技师范大学(理工学院),115.757654000000002,28.617101999999999,c2f28e592e30f36133621227,红谷滩区,115.745966899999999,28.614611369999999,21.8724995
423,1210,444,911,台州学院,4133010350.000000000000000,浙江省,台州市,本科,公办,台州学院(椒江校区),121.396485999999996,28.659755000000001,bb1d38e49787114c0c0a7030,椒江区,121.385499899999999,28.657023410000001,61.6627007
424,1573,580,1221,南昌航空大学,4136010406.000000000000000,江西省,南昌市,本科,公办,南昌航空大学(前湖校区),115.835043999999996,28.656991000000001,e2fe07a5e080b84dd42ce254,红谷滩区,115.823586800000001,28.654254269999999,152.0000000
425,1636,597,1238,江西警察学院,4136011504.000000000000000,江西省,南昌市,本科,公办,江西警察学院桃苑住宅小区,115.891364999999993,28.666340999999999,e5914200fb00c2c53913fd4d,西湖区,115.879999900000001,28.663805629999999,1.7905500
426,1634,597,1238,江西警察学院,4136011504.000000000000000,江西省,南昌市,本科,公办,江西警察学院,115.761550000000000,28.670515999999999,71a893d0e42e93e00782c2d2,新建区,115.749893499999999,28.667956759999999,71.6314011
427,1566,577,1218,南昌大学,4136010403.000000000000000,江西省,南昌市,本科,公办,南昌大学(前湖校区),115.807698000000002,28.662683999999999,dc8c65f84ee31804da2f2825,红谷滩区,115.796253300000004,28.659576229999999,294.3280029
428,1671,619,1260,豫章师范学院,4136013774.000000000000000,江西省,南昌市,本科,公办,豫章师范学院,115.782780000000002,28.671281000000000,9b38bd498f2f325246e27470,红谷滩区,115.771228800000003,28.668372479999999,30.9871006
429,1648,602,1243,江西应用科技学院,4136012938.000000000000000,江西省教育厅,南昌市,本科,民办,江西应用科技学院,115.709594999999993,28.670890000000000,03a5fa5449c2f35e1894c6eb,新建区,115.698064500000001,28.668010469999999,61.2760010
430,1626,595,1236,江西科技师范大学,4136011318.000000000000000,江西省,南昌市,本科,公办,江西科技师范大学(红角洲校区),115.825901999999999,28.673283999999999,387baad3bf83f1c1a8f729f9,红谷滩区,115.814451899999995,28.670362709999999,100.9749985
431,1632,596,1237,南昌工程学院,4136011319.000000000000000,江西省,南昌市,本科,公办,南昌工程学院(彭桥校区),115.941692000000003,28.682663999999999,54e88ca4ea1d4c7b354aaec4,青山湖区,115.930408400000005,28.679771790000000,7.5839601
432,1591,586,1227,江西师范大学,4136010414.000000000000000,江西省,南昌市,本科,公办,江西师范大学(青山湖校区),115.929463999999996,28.683834000000001,4781fb27880ed6bc3ce231c5,东湖区,115.918212400000002,28.680853030000002,27.1562004
433,1678,621,1262,南昌师范学院,4136014437.000000000000000,江西省,南昌市,本科,公办,南昌师范学院(青山湖校区),115.957984999999994,28.684788000000001,2134ac2789b92f377ab55c61,青山湖区,115.946609800000004,28.682138139999999,6.5989699
434,1585,584,1225,江西中医药大学,4136010412.000000000000000,江西省,南昌市,本科,公办,江西中医药大学(湾里校区),115.757395000000002,28.681639000000001,33b22e54307ca1cdb8bd6340,新建区,115.745715000000004,28.679118590000002,100.2020035
435,1590,586,1227,江西师范大学,4136010414.000000000000000,江西省,南昌市,本科,公办,江西师范大学(瑶湖校区),116.037791999999996,28.686226000000001,2ad32cc3b2c4d6f19c95deb3,南昌县,116.026286200000001,28.683016469999998,150.7209930
436,1568,577,1218,南昌大学,4136010403.000000000000000,江西省,南昌市,本科,公办,南昌大学(东湖校区),115.912971999999996,28.690124000000001,9d152649f6d38fc7b45f1e34,东湖区,115.901693300000005,28.687223190000001,7.9856300
437,1618,592,1233,江西科技学院,4136010846.000000000000000,江西省教育厅,南昌市,本科,民办,江西科技学院,116.025863999999999,28.686736000000000,ab9dc5e428b0a25414948ef9,南昌县,116.014354299999994,28.683708710000001,82.4514999
438,1567,577,1218,南昌大学,4136010403.000000000000000,江西省,南昌市,本科,公办,南昌大学(青山湖校区),115.943810999999997,28.688326000000000,38dc48b4331a049128201af3,青山湖区,115.932511899999994,28.685455200000000,18.5207005
439,1631,596,1237,南昌工程学院,4136011319.000000000000000,江西省,南昌市,本科,公办,南昌工程学院(瑶湖校区),116.037492000000000,28.695855000000002,2cc3c8e8b8782bd54d2fdf57,南昌县,116.025976299999996,28.692640669999999,123.3450012
440,1615,591,1232,江西财经大学,4136010421.000000000000000,江西省,南昌市,本科,公办,江西财经大学(青山园校区),115.923561000000007,28.710621000000000,5353733a4c5569ffc356acf5,东湖区,115.912287899999995,28.707622069999999,6.9088802
441,1672,619,1260,豫章师范学院,4136013774.000000000000000,江西省,南昌市,本科,公办,豫章师范学院(湾里校区),115.734947000000005,28.729973999999999,3c784be14824f8908f1a89bd,新建区,115.723252599999995,28.727425530000001,5.5454798
442,1677,621,1262,南昌师范学院,4136014437.000000000000000,江西省,南昌市,本科,公办,南昌师范学院(昌北校区),115.810580999999999,28.729028000000000,0ce65c2dbba34d592d473326,新建区,115.799102300000001,28.725883310000000,34.9524002
443,1613,591,1232,江西财经大学,4136010421.000000000000000,江西省,南昌市,本科,公办,江西财经大学(麦庐园校区),115.823206999999996,28.734117999999999,dc6d3cdfbaa1d5a4f02d8324,新建区,115.811732000000006,28.731108890000002,47.1096001
444,1614,591,1232,江西财经大学,4136010421.000000000000000,江西省,南昌市,本科,公办,江西财经大学(麦庐园北区),115.824072000000001,28.739014999999998,47b817c7ea90de66c6effbd2,新建区,115.812600099999997,28.736017629999999,15.9471998
445,1616,591,1232,江西财经大学,4136010421.000000000000000,江西省,南昌市,本科,公办,江西财经大学(枫林园校区),115.842714999999998,28.739142999999999,6d77ce575c177b8215a190ba,新建区,115.831210499999997,28.736501560000001,17.2486000
446,1627,595,1236,江西科技师范大学,4136011318.000000000000000,江西省,南昌市,本科,公办,江西科技师范大学(枫林校区),115.844111999999996,28.743314999999999,abd8102d4d032e6703ff2dff,青山湖区,115.832609000000005,28.740698219999999,29.9255009
447,1612,591,1232,江西财经大学,4136010421.000000000000000,江西省,南昌市,本科,公办,江西财经大学(蛟桥园校区),115.860911999999999,28.746777999999999,eabc3cc91d52deeaa3acc4a7,新建区,115.849404899999996,28.744388019999999,59.4452019
448,1581,583,1224,江西农业大学,4136010410.000000000000000,江西省,南昌市,本科,公办,江西农业大学,115.839464000000007,28.768204999999998,16dcf97b700a8ebb5cd4febb,新建区,115.827987800000002,28.765486800000001,65.8264008
449,1646,601,1242,南昌理工学院,4136012795.000000000000000,江西省教育厅,南昌市,本科,民办,南昌理工学院,115.867585000000005,28.788080000000001,00586108128c26a546e27407,青山湖区,115.856101300000006,28.785690769999999,117.4130020
450,2813,1027,2245,宜宾学院,4151010641.000000000000000,四川省,宜宾市,本科,公办,宜宾学院,104.620282000000003,28.799496000000001,7388dffd2caa4fead3ff232e,翠屏区,104.611489899999995,28.796869480000002,34.5567017
451,1652,604,1245,南昌职业大学,4136013420.000000000000000,江西省教育厅,南昌市,本科,民办,南昌职业大学,115.588184999999996,28.852169000000000,e718247705f843e72dfaa7c0,安义县,115.576732600000000,28.849267240000000,14.0251999
452,1212,444,911,台州学院,4133010350.000000000000000,浙江省,台州市,本科,公办,台州学院(第一校区),121.123119000000003,28.856286999999998,7505f9ff17ac9a97fd0eb0b5,临海市,121.112162699999999,28.853226260000000,5.2564502
453,2860,1040,2258,四川警察学院,4151012212.000000000000000,四川省,泸州市,本科,公办,四川警察学院,105.435038000000006,28.882239999999999,5fadbc3e7f26915c40e19224,江阳区,105.424869400000006,28.879536940000001,26.9193993
454,1211,444,911,台州学院,4133010350.000000000000000,浙江省,台州市,本科,公办,台州学院(临海校区),121.175549000000004,28.882296000000000,e692277ad7f47232c6effb20,临海市,121.164714000000004,28.879188140000000,30.4130993
455,2791,1020,2238,西南医科大学,4151010632.000000000000000,四川省,泸州市,本科,公办,西南医科大学(忠山校区),105.451069000000004,28.890488999999999,5dc78ea3b6426cbc78f796e6,江阳区,105.440969400000000,28.887606269999999,25.2908001
456,1674,620,1261,江西软件职业技术大学,4136013776.000000000000000,江西省教育厅,南昌市,本科,民办,江西软件职业技术大学,115.822710000000001,28.902228999999998,5c513710fe987e690782c2ab,新建区,115.811252199999998,28.899098160000001,66.1446991
457,2792,1020,2238,西南医科大学,4151010632.000000000000000,四川省,泸州市,本科,公办,西南医科大学(城北校区),105.425397000000004,28.906504999999999,e3c4b97ccac8efe9f942b298,龙马潭区,105.415219899999997,28.903806740000000,77.4021988
458,1260,457,924,衢州学院,4133011488.000000000000000,浙江省,衢州市,本科,公办,衢州学院,118.875523999999999,28.988289999999999,606289fd8efd964ca2046441,柯城区,118.864160400000003,28.985687899999999,43.7473984
459,2366,865,1811,湖南应用技术学院,4143013809.000000000000000,湖南省教育厅,常德市,本科,民办,湖南应用技术学院(东校区),111.701020000000000,28.994219999999999,af39a966defd99a3f5c59c94,鼎城区,111.688961800000001,28.991217280000001,19.0990009
460,2361,857,1803,湖南文理学院芙蓉学院,4143012657.000000000000000,湖南省教育厅,常德市,本科,民办,湖南文理学院芙蓉学院,111.727290999999994,29.031846999999999,91d67871720d31becac3dbfc,武陵区,111.715252899999996,29.028518450000000,15.9470997
461,2736,1002,2177,重庆外语外事学院,4150013588.000000000000000,重庆市教委,重庆市,本科,民办,重庆外语外事学院(綦江校区),106.700469999999996,29.040876000000001,00256270d9a6827c2cb908c1,綦江区,106.690183500000003,29.037738930000000,20.5855007
462,2297,832,1778,湖南文理学院,4143010549.000000000000000,湖南省,常德市,本科,公办,湖南文理学院(西校区),111.677853999999996,29.054359000000002,ffd6d403a8caaaf117b54b61,武陵区,111.665734400000005,29.051703220000000,77.5790024
463,1194,440,907,浙江师范大学,4133010345.000000000000000,浙江省,金华市,本科,公办,浙江师范大学开放学院,119.642017999999993,29.132743999999999,f9fd60628786591e0f0e6b65,婺城区,119.630930699999993,29.129360170000002,1.5484400
464,1192,440,907,浙江师范大学,4133010345.000000000000000,浙江省,金华市,本科,公办,浙江师范大学国际交流中心(餐饮部),119.657555000000002,29.140010000000000,4bcdda7787aa900f9d9d6895,婺城区,119.646438799999999,29.136646050000000,2.3139501
465,1191,440,907,浙江师范大学,4133010345.000000000000000,浙江省,金华市,本科,公办,浙江师范大学,119.649096999999998,29.140599999999999,2eefbdd7dfb495eaa8f0cd90,婺城区,119.638003800000007,29.137193679999999,145.6970062
466,2364,862,1808,吉首大学张家界学院,4143012662.000000000000000,湖南省教育厅,张家界市,本科,民办,吉首大学张家界学院,110.457712999999998,29.157558000000002,b9e0f354e9dc3504fbf0cbbd,永定区,110.446119999999993,29.154612449999998,29.0200996
467,1288,468,935,浙江师范大学行知学院,4133013276.000000000000000,浙江省教育厅,金华市,本科,民办,浙江师范大学行知学院(兰溪校区),119.496757000000002,29.181985999999998,13e19b4b9ced95b004026ff0,兰溪市,119.485239100000001,29.178694380000000,50.9645996
468,1658,607,1248,南昌大学共青学院,4136013430.000000000000000,江西省教育厅,九江市,本科,民办,南昌大学共青学院,115.813664000000003,29.234214000000001,d7262a906a822d599b68b4bd,共青城市,115.802172100000007,29.230710269999999,28.4925003
469,2703,988,2163,重庆文理学院,4150010642.000000000000000,重庆市,重庆市,本科,公办,重庆文理学院(星湖校区),105.874947000000006,29.242875000000002,14076deea0f0eef402294fe8,永川区,105.864986700000003,29.239906699999999,41.0558014
470,1580,582,1223,景德镇陶瓷大学,4136010408.000000000000000,江西省,景德镇市,本科,公办,景德镇陶瓷大学科技艺术学院,117.258233000000004,29.299268000000001,611435bbe1cf8936471a323d,珠山区,117.246536699999993,29.295683140000001,16.2803993
471,1285,466,933,浙江广厦建设职业技术大学,4133013029.000000000000000,浙江省教育厅,金华市,本科,民办,浙江广厦建设职业技术大学,120.250918999999996,29.304773999999998,b0d056f288ade47fcbc3dba5,东阳市,120.240081700000005,29.301080030000001,47.4958000
472,1579,582,1223,景德镇陶瓷大学,4136010408.000000000000000,江西省,景德镇市,本科,公办,景德镇陶瓷大学(湘湖校区),117.323353999999995,29.334640000000000,5b9881b14cfc9adabca8226e,浮梁县,117.311432499999995,29.331479370000000,86.2216034
473,2776,1015,2233,四川轻化工大学,4151010622.000000000000000,四川省,自贡市,本科,公办,四川轻化工大学应用技术学院,104.769841000000000,29.341488999999999,8c454662760366fdb54f54f0,自流井区,104.760731699999994,29.338025779999999,6.7816300
474,2773,1015,2233,四川轻化工大学,4151010622.000000000000000,四川省,自贡市,本科,公办,四川轻化工大学(汇东校区),104.776957999999993,29.336459999999999,db5157c3e0e117d8220220d1,自流井区,104.767829300000002,29.333043400000001,38.4808998
475,2775,1015,2233,四川轻化工大学,4151010622.000000000000000,四川省,自贡市,本科,公办,四川轻化工大学(汇北校区),104.773612999999997,29.345044000000001,a05f8687cefb10c49d9d6822,自流井区,104.764500400000003,29.341598059999999,6.2304201
476,2279,827,1773,湖南理工学院,4143010543.000000000000000,湖南省,岳阳市,本科,公办,湖南理工学院,113.152704000000000,29.346256000000000,0617d411ff9f3d8826d2bb3b,岳阳楼区,113.140322400000002,29.342581110000001,98.9189987
477,2739,1004,2179,重庆财经学院,4150013590.000000000000000,重庆市教委,重庆市,本科,民办,重庆财经学院,106.533062999999999,29.351652000000001,012046b611f4f4c83913fdce,巴南区,106.522782000000007,29.348592730000000,22.6376991
478,1667,612,1253,景德镇艺术职业大学,4136013435.000000000000000,江西省教育厅,景德镇市,本科,民办,景德镇艺术职业大学(新校区),117.238347000000005,29.353724000000000,a52bc32b1210b5b1c03644bd,珠山区,117.226671499999995,29.350066810000001,77.1989975
479,2702,988,2163,重庆文理学院,4150010642.000000000000000,重庆市,重庆市,本科,公办,重庆文理学院(红河校区),105.944503999999995,29.357066000000000,b13730d640a703650aa8d498,永川区,105.934549099999998,29.353920830000000,49.4323006
480,2774,1015,2233,四川轻化工大学,4151010622.000000000000000,四川省,自贡市,本科,公办,四川轻化工大学(李白河校区),104.838361000000006,29.384433000000001,438c21d9d8ebe292b21e36d0,大安区,104.829144499999998,29.381608629999999,61.3913002
481,2698,986,2161,西南大学,4150010635.000000000000000,教育部,重庆市,本科,公办,西南大学(荣昌校区),105.585047000000003,29.401702000000000,bff092ad1da201f4ae080f4f,荣昌区,105.575240899999997,29.398538760000001,21.3659000
482,2731,999,2174,重庆城市科技学院,4150012616.000000000000000,重庆市教委,重庆市,本科,民办,重庆城市科技学院(永川校区),105.893234000000007,29.397390000000001,bba87388d9313ba3bca822d6,永川区,105.883201600000007,29.394610900000000,56.7551994
483,1276,462,929,宁波财经学院,4133013001.000000000000000,浙江省教育厅,宁波市,本科,民办,宁波财经学院象山影视学院,121.934168000000000,29.416028000000001,119c01c49c5fb34f84420e3c,象山县,121.923772900000003,29.412436400000001,23.4666996
484,2690,984,2159,重庆交通大学,4150010618.000000000000000,重庆市,重庆市,本科,公办,重庆交通大学(科学城校区),106.321967000000001,29.425950000000000,6a834118d06695c2dbeced14,江津区,106.311693399999996,29.422347640000002,98.4485016
485,2728,998,2173,重庆工程学院,4150012608.000000000000000,重庆市教委,重庆市,本科,民办,重庆工程学院(南泉校区),106.602486999999996,29.429753999999999,b6bb14cbf8d11e2e6c47608c,巴南区,106.592263200000005,29.426801770000001,29.1961994
486,2719,995,2170,重庆理工大学,4150011660.000000000000000,重庆市,重庆市,本科,公办,重庆理工大学(花溪校区),106.538438999999997,29.462731000000002,c23c0f7d1866258435b06c6e,巴南区,106.528181500000002,29.459534099999999,64.6780014
487,2714,993,2168,四川美术学院,4150010655.000000000000000,重庆市,重庆市,本科,公办,四川美术学院(黄桷坪校区),106.547635999999997,29.493753000000002,4badcf94b8d7d9d529fc48df,九龙坡区,106.537461600000000,29.490428359999999,11.5895004
488,2689,984,2159,重庆交通大学,4150010618.000000000000000,重庆市,重庆市,本科,公办,重庆交通大学,106.577411999999995,29.494640000000000,25ec69fc5b09567dc26c14ce,南岸区,106.567314100000004,29.491279750000000,29.4158001
489,2745,1007,2182,重庆第二师范学院,4150014388.000000000000000,重庆市,重庆市,本科,公办,重庆第二师范学院(南山校区),106.603025000000002,29.502932000000001,dec24ac79ae2ec6ebb17e700,南岸区,106.592830599999999,29.499963770000001,25.0454998
490,2724,996,2171,重庆工商大学,4150011799.000000000000000,重庆市,重庆市,本科,公办,重庆工商大学(南岸校区),106.585459000000000,29.509588999999998,48b06e16c57ae1d4b5f42f6a,南岸区,106.575336100000001,29.506324639999999,65.3796005
491,2742,1007,2182,重庆第二师范学院,4150014388.000000000000000,重庆市,重庆市,本科,公办,重庆第二师范学院,106.582937000000001,29.516349000000002,f3fc669f7df1aa452ce67b70,南岸区,106.572816099999997,29.513043990000000,11.3818998
492,2729,998,2173,重庆工程学院,4150012608.000000000000000,重庆市教委,重庆市,本科,民办,重庆工程学院(双桥校区),105.787789000000004,29.517455000000002,084b2fa2963cff31441a3271,大足区,105.777574099999995,29.514528299999998,15.5637999
493,2693,985,2160,重庆医科大学,4150010631.000000000000000,重庆市,重庆市,本科,公办,重庆医科大学(医学院路),106.514521999999999,29.538879000000001,abbd3af00df2048e077ce8f6,渝中区,106.504093400000002,29.535901410000001,28.0627995
494,2692,984,2159,重庆交通大学,4150010618.000000000000000,重庆市,重庆市,本科,公办,重庆交通大学(大坪分部),106.532775999999998,29.540703000000001,5fac6f16e7c9b48429b97cea,渝中区,106.522462500000003,29.537548279999999,8.0032301
495,2687,983,2158,重庆邮电大学,4150010617.000000000000000,重庆市,重庆市,本科,公办,重庆邮电大学,106.614390999999998,29.537571000000000,844a750e01b56cba626858cd,南岸区,106.604117099999996,29.534730690000000,85.2153015
496,2708,991,2166,四川外国语大学,4150010650.000000000000000,重庆市,重庆市,本科,公办,四川外国语大学重庆第二外国语学校,106.616467999999998,29.547588000000001,ad5fd844934b66e049fd3f32,南岸区,106.606179900000001,29.544760470000000,5.4553099
497,2727,997,2172,重庆机电职业技术大学,4150012607.000000000000000,重庆市教委,重庆市,本科,民办,重庆机电职业技术大学,106.245103000000000,29.558447000000001,88278b458a1108ae2806ce99,璧山区,106.234782699999997,29.555294230000001,39.6313019
498,2701,987,2162,重庆师范大学,4150010637.000000000000000,重庆市,重庆市,本科,公办,重庆师范大学(沙坪坝校区),106.463184999999996,29.562843999999998,ff8adab6a5ea8505c72ba115,沙坪坝区,106.452748499999998,29.559218940000001,18.0997009
499,2726,996,2171,重庆工商大学,4150011799.000000000000000,重庆市,重庆市,本科,公办,重庆工商大学(江北校区),106.537351000000001,29.565173000000001,23116913fcdb69fd734b87e8,江北区,106.527065800000003,29.561944830000002,10.1850004
500,2864,1044,2262,成都理工大学工程技术学院,4151013668.000000000000000,四川省教育厅,乐山市,本科,民办,成都理工大学工程技术学院,103.738151999999999,29.565740000000002,ec61dfd05f5bb8eba7c7564f,市中区,103.729358300000001,29.562773510000000,54.2086983
501,2827,1030,2248,乐山师范学院,4151010649.000000000000000,四川省,乐山市,本科,公办,乐山师范学院,103.757746999999995,29.565114999999999,e93761f696f8860d233bf296,市中区,103.748945699999993,29.562117340000000,52.2075996
502,2684,982,2157,重庆大学,4150010611.000000000000000,教育部,重庆市,本科,公办,重庆大学(B区),106.467906999999997,29.573038000000000,5fb75bcd2f4093f4ed74f8be,沙坪坝区,106.457467500000007,29.569487599999999,36.1892014
503,2710,992,2167,西南政法大学,4150010652.000000000000000,重庆市,重庆市,本科,公办,西南政法大学(沙坪坝校区),106.448728000000003,29.574774000000001,1642a28549c8ae1485420eb3,沙坪坝区,106.438304299999999,29.571007789999999,17.8700008
504,2707,991,2166,四川外国语大学,4150010650.000000000000000,重庆市,重庆市,本科,公办,四川外国语大学,106.442919000000003,29.576542000000000,0a15c7eca5ff1efded74f8cc,沙坪坝区,106.432488199999995,29.572770550000001,60.5153999
505,2717,994,2169,重庆科技学院,4150011551.000000000000000,重庆市,重庆市,本科,公办,重庆科技学院(虎溪校区),106.330207000000001,29.596567000000000,9bfa05339216bd2920026214,沙坪坝区,106.319931600000004,29.592882329999998,77.5262985
506,2683,982,2157,重庆大学,4150010611.000000000000000,教育部,重庆市,本科,公办,重庆大学(虎溪校区),106.305243000000004,29.600532999999999,2a09175e963bf4fee856fa5b,沙坪坝区,106.294978799999996,29.597063160000001,157.5820007
507,2713,993,2168,四川美术学院,4150010655.000000000000000,重庆市,重庆市,本科,公办,四川美术学院(虎溪校区),106.303877000000000,29.608765999999999,50fb64ff7d9ee55de9f85361,沙坪坝区,106.293613899999997,29.605317769999999,58.9833984
