[{"name": "\u5357\u4eac\u5927\u5b66(\u9f13\u697c\u6821\u533a)", "location": {"lat": 32.06143, "lng": 118.786007}, "address": "\u6c5f\u82cf\u7701\u5357\u4eac\u5e02\u9f13\u697c\u533a\u6c49\u53e3\u8def22\u53f7", "province": "\u6c5f\u82cf\u7701", "city": "\u5357\u4eac\u5e02", "area": "\u9f13\u697c\u533a", "telephone": "(025)83593186", "detail": 0, "uid": "a26d3f62be10d143343a712a"}, {"name": "\u5357\u4eac\u5927\u5b66(\u4ed9\u6797\u6821\u533a)", "location": {"lat": 32.125421, "lng": 118.964891}, "address": "\u6c5f\u82cf\u7701\u5357\u4eac\u5e02\u6816\u971e\u533a\u4ed9\u6797\u5927\u9053163\u53f7", "province": "\u6c5f\u82cf\u7701", "city": "\u5357\u4eac\u5e02", "area": "\u6816\u971e\u533a", "telephone": "(025)89683186", "detail": 0, "uid": "cfe4cb9504cf581697f08c65"}, {"name": "\u5357\u4eac\u5927\u5b66(\u6d66\u53e3\u6821\u533a)", "location": {"lat": 32.18352, "lng": 118.711636}, "address": "\u6c5f\u82cf\u7701\u5357\u4eac\u5e02\u6d66\u53e3\u533a\u5b66\u5e9c\u8def8\u53f7", "province": "\u6c5f\u82cf\u7701", "city": "\u5357\u4eac\u5e02", "area": "\u6d66\u53e3\u533a", "telephone": "(025)58646684", "detail": 0, "uid": "8c499c8444279faed6851fbc"}, {"name": "\u5357\u4eac\u5e08\u8303\u5927\u5b66(\u968f\u56ed\u6821\u533a)", "location": {"lat": 32.059149, "lng": 118.773988}, "address": "\u6c5f\u82cf\u7701\u5357\u4eac\u5e02\u9f13\u697c\u533a\u5b81\u6d77\u8def122\u53f7", "province": "\u6c5f\u82cf\u7701", "city": "\u5357\u4eac\u5e02", "area": "\u9f13\u697c\u533a", "detail": 0, "uid": "5394e9b4bd4db3bd59bbbc0b"}, {"name": "\u5357\u4eac\u5e08\u8303\u5927\u5b66(\u4ed9\u6797\u6821\u533a)", "location": {"lat": 32.112189, "lng": 118.916683}, "address": "\u6c5f\u82cf\u7701\u5357\u4eac\u5e02\u6816\u971e\u533a\u6587\u82d1\u8def1\u53f7", "province": "\u6c5f\u82cf\u7701", "city": "\u5357\u4eac\u5e02", "area": "\u6816\u971e\u533a", "telephone": "(025)83720759", "detail": 0, "uid": "d5d663ce25f432b448cc4aea"}, {"name": "\u5357\u4eac\u7406\u5de5\u5927\u5b66", "location": {"lat": 32.03162, "lng": 118.863418}, "address": "\u6c5f\u82cf\u7701\u5357\u4eac\u5e02\u7384\u6b66\u533a\u5b5d\u9675\u536b\u8857200\u53f7", "province": "\u6c5f\u82cf\u7701", "city": "\u5357\u4eac\u5e02", "area": "\u7384\u6b66\u533a", "telephone": "(025)84315114,(025)84315260", "detail": 0, "uid": "6a54e04787fe6185c4f0251a"}, {"name": "\u5357\u4eac\u533b\u79d1\u5927\u5b66(\u6c5f\u5b81\u6821\u533a)", "location": {"lat": 31.944119, "lng": 118.897191}, "address": "\u5357\u4eac\u5e02\u6c5f\u5b81\u533a\u9f99\u7720\u5927\u9053101\u53f7", "province": "\u6c5f\u82cf\u7701", "city": "\u5357\u4eac\u5e02", "area": "\u6c5f\u5b81\u533a", "telephone": "(025)86869077", "detail": 0, "uid": "9ee392b8fdcdfd3fbabd63bf"}, {"name": "\u5357\u4eac\u8d22\u7ecf\u5927\u5b66(\u4ed9\u6797\u6821\u533a)", "location": {"lat": 32.115144, "lng": 118.928683}, "address": "\u6c5f\u82cf\u5357\u4eac\u5e02\u4ed9\u6797\u5927\u5b66\u57ce\u6587\u82d1\u8def3\u53f7", "province": "\u6c5f\u82cf\u7701", "city": "\u5357\u4eac\u5e02", "area": "\u6816\u971e\u533a", "telephone": "(025)86718787", "detail": 0, "uid": "21067036d26eef739e95decd"}, {"name": "\u5357\u4eac\u5927\u5b66(\u9f13\u697c\u6821\u533a)-\u5357\u95e8", "location": {"lat": 32.059559, "lng": 118.785929}, "address": "\u6c5f\u82cf\u7701\u5357\u4eac\u5e02\u9f13\u697c\u533a\u6c49\u53e3\u8def22\u53f7", "province": "\u6c5f\u82cf\u7701", "city": "\u5357\u4eac\u5e02", "area": "\u9f13\u697c\u533a", "detail": 0, "uid": "e0bae279327e922e8a36ee02"}, {"name": "\u5357\u4eac\u5927\u5b66(\u4ed9\u6797\u6821\u533a)-\u5357\u95e8", "location": {"lat": 32.115858, "lng": 118.967645}, "address": "\u662f\u6816\u971e\u533a\u4ed9\u6797\u5927\u9053163\u53f7", "province": "\u6c5f\u82cf\u7701", "city": "\u5357\u4eac\u5e02", "area": "\u6816\u971e\u533a", "detail": 0, "uid": "6b0d4a1ba3fea47df7e73b57"}][{"name": "\u4e1c\u5357\u5927\u5b66(\u56db\u724c\u697c\u6821\u533a)", "location": {"lat": 32.061148, "lng": 118.800284}, "address": "\u5357\u4eac\u5e02\u7384\u6b66\u533a\u65b0\u8857\u53e3\u8857\u9053\u5927\u77f3\u6865\u793e\u533a\u56db\u724c\u697c2\u53f7", "province": "\u6c5f\u82cf\u7701", "city": "\u5357\u4eac\u5e02", "area": "\u7384\u6b66\u533a", "street_id": "ae4c1091073c8dd935b06c0a", "telephone": "(025)83793095", "detail": 1, "uid": "ae4c1091073c8dd935b06c0a"}, {"name": "\u4e1c\u5357\u5927\u5b66(\u56db\u724c\u697c\u6821\u533a)-\u5357\u95e8", "location": {"lat": 32.059759, "lng": 118.800444}, "address": "\u6c5f\u82cf\u7701\u5357\u4eac\u5e02\u7384\u6b66\u533a\u56db\u724c\u697c2\u53f7\u4e1c\u5357\u5927\u5b66\u56db\u724c\u697c\u6821\u533a", "province": "\u6c5f\u82cf\u7701", "city": "\u5357\u4eac\u5e02", "area": "\u7384\u6b66\u533a", "street_id": "da13c8dcc99889cc39e4a653", "detail": 1, "uid": "da13c8dcc99889cc39e4a653"}, {"name": "\u4e1c\u5357\u5927\u5b66(\u4e5d\u9f99\u6e56\u6821\u533a)", "location": {"lat": 31.893974, "lng": 118.82648}, "address": "\u5357\u4eac\u5e02\u6c5f\u5b81\u533a\u4e1c\u5357\u5927\u5b66\u8def2\u53f7", "province": "\u6c5f\u82cf\u7701", "city": "\u5357\u4eac\u5e02", "area": "\u6c5f\u5b81\u533a", "street_id": "3aeb5308f378f01e4f3a5907", "telephone": "(025)52090271", "detail": 1, "uid": "3aeb5308f378f01e4f3a5907"}, {"name": "\u4e1c\u5357\u5927\u5b66(\u4e01\u5bb6\u6865\u6821\u533a)", "location": {"lat": 32.080824, "lng": 118.782056}, "address": "\u5357\u4eac\u5e02\u9f13\u697c\u533a\u6e56\u5357\u8def\u4e01\u5bb6\u686587\u53f7", "province": "\u6c5f\u82cf\u7701", "city": "\u5357\u4eac\u5e02", "area": "\u9f13\u697c\u533a", "street_id": "fb57240dd8ea90c89122e004", "telephone": "(025)83272304", "detail": 1, "uid": "fb57240dd8ea90c89122e004"}, {"name": "\u4e1c\u5357\u5927\u5b66(\u4e5d\u9f99\u6e56\u6821\u533a)-\u5317\u95e8", "location": {"lat": 31.899714, "lng": 118.829645}, "address": "\u5357\u4eac\u5e02\u6c5f\u5b81\u533a\u4e24\u6c5f\u4e1c\u8def\u4e0e\u5409\u5370\u5927\u9053\u4ea4\u53c9\u53e3\u535750\u7c73", "province": "\u6c5f\u82cf\u7701", "city": "\u5357\u4eac\u5e02", "area": "\u6c5f\u5b81\u533a", "street_id": "b703e96b9e489bfa8f1a8978", "detail": 1, "uid": "b703e96b9e489bfa8f1a8978"}, {"name": "\u4e1c\u5357\u5927\u5b66\u9644\u5c5e\u4e2d\u5927\u533b\u9662", "location": {"lat": 32.078402, "lng": 118.782752}, "address": "\u6c5f\u82cf\u7701\u5357\u4eac\u5e02\u9f13\u697c\u533a\u4e01\u5bb6\u686587\u53f7", "province": "\u6c5f\u82cf\u7701", "city": "\u5357\u4eac\u5e02", "area": "\u9f13\u697c\u533a", "street_id": "", "telephone": "(025)83272111", "detail": 1, "uid": "cde9e2c7a680baade81e9754"}, {"name": "\u4e1c\u5357\u5927\u5b66", "location": {"lat": 32.059466, "lng": 118.801416}, "address": "70\u8def", "province": "\u6c5f\u82cf\u7701", "city": "\u5357\u4eac\u5e02", "area": "\u7384\u6b66\u533a", "detail": 0, "uid": "3674ffa0a346a705c16c140f"}, {"name": "\u4e1c\u5357\u5927\u5b66", "location": {"lat": 32.059822, "lng": 118.798748}, "address": "70\u8def;95\u8def", "province": "\u6c5f\u82cf\u7701", "city": "\u5357\u4eac\u5e02", "area": "\u7384\u6b66\u533a", "detail": 0, "uid": "7bc4e0a1637de2bf5abbbcb9"}, {"name": "\u4e1c\u5357\u5927\u5b66", "location": {"lat": 32.059704, "lng": 118.799637}, "address": "70\u8def;95\u8def", "province": "\u6c5f\u82cf\u7701", "city": "\u5357\u4eac\u5e02", "area": "\u7384\u6b66\u533a", "detail": 0, "uid": "44504bfb1d4c17715bf6be54"}, {"name": "\u4e1c\u5357\u5927\u5b66(\u4e5d\u9f99\u6e56\u6821\u533a)-\u4e1c\u95e8", "location": {"lat": 31.893141, "lng": 118.836531}, "address": "\u5357\u4eac\u5e02\u6c5f\u5b81\u533a\u5357\u5de5\u8def\u4e0e\u71d5\u6e56\u8def\u4ea4\u53c9\u53e3\u897f50\u7c73", "province": "\u6c5f\u82cf\u7701", "city": "\u5357\u4eac\u5e02", "area": "\u6c5f\u5b81\u533a", "street_id": "c320552e9b5c8a83ab059db7", "detail": 1, "uid": "c320552e9b5c8a83ab059db7"}][{"name": "\u5357\u4eac\u5de5\u4e1a\u5927\u5b66", "location": {"lat": 32.088423, "lng": 118.647258}, "address": "\u6c5f\u82cf\u7701\u5357\u4eac\u5e02\u6d66\u53e3\u533a\u6d66\u73e0\u5357\u8def30\u53f7", "province": "\u6c5f\u82cf\u7701", "city": "\u5357\u4eac\u5e02", "area": "\u6d66\u53e3\u533a", "street_id": "1c3ba7fb5d1da274df1e5221", "telephone": "(025)58139248,(025)58139777", "detail": 1, "uid": "1c3ba7fb5d1da274df1e5221"}, {"name": "\u5357\u4eac\u5de5\u4e1a\u5927\u5b66-\u5357\u95e8", "location": {"lat": 32.078171, "lng": 118.650939}, "address": "\u5357\u4eac\u5e02\u6d66\u53e3\u533a\u6d66\u73e0\u5357\u8def30\u53f7", "province": "\u6c5f\u82cf\u7701", "city": "\u5357\u4eac\u5e02", "area": "\u6d66\u53e3\u533a", "street_id": "1f4dcc3c468ef4811329350d", "detail": 1, "uid": "1f4dcc3c468ef4811329350d"}, {"name": "\u5357\u4eac\u5de5\u4e1a\u5927\u5b66", "location": {"lat": 32.072823, "lng": 118.654624}, "address": "\u5730\u94c110\u53f7\u7ebf", "province": "\u6c5f\u82cf\u7701", "city": "\u5357\u4eac\u5e02", "area": "\u6d66\u53e3\u533a", "detail": 1, "uid": "849338ef13ea6cf285420eb3"}, {"name": "\u5357\u4eac\u5de5\u4e1a\u5927\u5b66\u6d66\u6c5f\u5b66\u9662", "location": {"lat": 31.642607, "lng": 118.908807}, "address": "\u6c5f\u82cf\u7701\u5357\u4eac\u5e02\u6ea7\u6c34\u533a\u77f3\u6e6b\u8857\u9053\u52b1\u5b66\u8def9\u53f7", "province": "\u6c5f\u82cf\u7701", "city": "\u5357\u4eac\u5e02", "area": "\u6ea7\u6c34\u533a", "street_id": "", "telephone": "(025)66205017", "detail": 1, "uid": "a1dc1f63f496d9dfe4073847"}, {"name": "\u5357\u4eac\u5de5\u4e1a\u5927\u5b66(\u4e01\u5bb6\u6865\u6821\u533a)-\u5317\u95e8", "location": {"lat": 32.083893, "lng": 118.782049}, "address": "\u6c5f\u82cf\u7701\u5357\u4eac\u5e02\u9f13\u697c\u533a\u65b0\u6a21\u8303\u9a6c\u8def30\u53f7", "province": "\u6c5f\u82cf\u7701", "city": "\u5357\u4eac\u5e02", "area": "\u9f13\u697c\u533a", "street_id": "8d56bf65d728207e8d55ec77", "detail": 1, "uid": "8d56bf65d728207e8d55ec77"}, {"name": "\u5357\u4eac\u5de5\u4e1a\u5927\u5b66\u6c5f\u6d66\u6821\u533a-\u897f\u82d1", "location": {"lat": 32.082253, "lng": 118.645862}, "address": "\u5357\u4eac\u5e02\u6d66\u53e3\u533a\u6c5f\u6d66\u8857\u9053\u6d66\u73e0\u5357\u8def30\u53f7", "province": "\u6c5f\u82cf\u7701", "city": "\u5357\u4eac\u5e02", "area": "\u6d66\u53e3\u533a", "street_id": "5bc621a74af2ddd317b54b8a", "detail": 1, "uid": "5bc621a74af2ddd317b54b8a"}, {"name": "\u5357\u4eac\u5de5\u4e1a\u804c\u4e1a\u6280\u672f\u5927\u5b66(\u4e2d\u5c71\u6821\u533a)", "location": {"lat": 32.04498, "lng": 118.829241}, "address": "\u6c5f\u82cf\u7701\u5357\u4eac\u5e02\u79e6\u6dee\u533a\u4e2d\u5c71\u4e1c\u8def532-2\u53f7\u5802\u6821\u533aa2\u680b", "province": "\u6c5f\u82cf\u7701", "city": "\u5357\u4eac\u5e02", "area": "\u79e6\u6dee\u533a", "street_id": "72d869f838f19e8121022057", "telephone": "(025)84588833", "detail": 1, "uid": "72d869f838f19e8121022057"}, {"name": "\u5357\u4eac\u5de5\u4e1a\u5927\u5b66\u5149\u7535\u79d1\u6280\u56ed", "location": {"lat": 32.096472, "lng": 118.764039}, "address": "\u5357\u4eac\u5e02\u9f13\u697c\u533a\u91d1\u5ddd\u95e8\u59165-23\u53f7", "province": "\u6c5f\u82cf\u7701", "city": "\u5357\u4eac\u5e02", "area": "\u9f13\u697c\u533a", "street_id": "", "telephone": "(025)58806434", "detail": 1, "uid": "4976986847ac96d93f9a5e28"}, {"name": "\u5357\u4eac\u5de5\u4e1a\u804c\u4e1a\u6280\u672f\u5927\u5b66(\u4ed9\u6797\u6821\u533a)", "location": {"lat": 32.126757, "lng": 118.945686}, "address": "\u6c5f\u82cf\u7701\u5357\u4eac\u5e02\u6816\u971e\u533a\u4ed9\u6797\u5927\u5b66\u57ce\u7f8a\u5c71\u5317\u8def1\u53f7", "province": "\u6c5f\u82cf\u7701", "city": "\u5357\u4eac\u5e02", "area": "\u6816\u971e\u533a", "street_id": "", "telephone": "(025)85864009", "detail": 1, "uid": "285b5874c43858e4cf06a4bb"}, {"name": "\u5357\u4eac\u5de5\u4e1a\u5927\u5b66\u56fd\u5bb6\u5927\u5b66\u79d1\u6280\u56ed-\u79d1\u6280\u521b\u65b0\u5927\u697c", "location": {"lat": 32.082691, "lng": 118.7846}, "address": "\u6c5f\u82cf\u7701\u5357\u4eac\u5e02\u9f13\u697c\u533a\u65b0\u6a21\u8303\u9a6c\u8def5\u53f7", "province": "\u6c5f\u82cf\u7701", "city": "\u5357\u4eac\u5e02", "area": "\u9f13\u697c\u533a", "street_id": "3b0f6d97438d32dd990050b4", "telephone": "(025)83172398", "detail": 1, "uid": "3b0f6d97438d32dd990050b4"}][{"name": "\u5357\u4eac\u90ae\u7535\u5927\u5b66(\u4ed9\u6797\u6821\u533a)", "location": {"lat": 32.119823, "lng": 118.937284}, "address": "\u6c5f\u82cf\u7701\u5357\u4eac\u5e02\u6816\u971e\u533a\u6587\u82d1\u8def9\u53f7", "province": "\u6c5f\u82cf\u7701", "city": "\u5357\u4eac\u5e02", "area": "\u6816\u971e\u533a", "street_id": "", "telephone": "(025)85866888", "detail": 1, "uid": "bbf5fedaa64e73a55abbbca2"}, {"name": "\u5357\u4eac\u90ae\u7535\u5927\u5b66(\u4e09\u724c\u697c\u6821\u533a)", "location": {"lat": 32.088811, "lng": 118.777332}, "address": "\u6c5f\u82cf\u7701\u5357\u4eac\u5e02\u9f13\u697c\u533a\u65b0\u6a21\u8303\u9a6c\u8def66\u53f7", "province": "\u6c5f\u82cf\u7701", "city": "\u5357\u4eac\u5e02", "area": "\u9f13\u697c\u533a", "street_id": "d9b1b85333cabdff6c3e1bbf", "telephone": "(025)85866999", "detail": 1, "uid": "d9b1b85333cabdff6c3e1bbf"}, {"name": "\u5357\u4eac\u90ae\u7535\u5927\u5b66(\u9501\u91d1\u6751\u6821\u533a)", "location": {"lat": 32.076751, "lng": 118.820709}, "address": "\u6c5f\u82cf\u7701\u5357\u4eac\u5e02\u7384\u6b66\u533a\u9f99\u87e0\u8def177\u53f7", "province": "\u6c5f\u82cf\u7701", "city": "\u5357\u4eac\u5e02", "area": "\u7384\u6b66\u533a", "street_id": "d30615dcb55d6148b6147f6d", "telephone": "(025)85483008", "detail": 1, "uid": "d30615dcb55d6148b6147f6d"}, {"name": "\u5357\u4eac\u90ae\u7535\u5927\u5b66", "location": {"lat": 32.112011, "lng": 118.938995}, "address": "97\u8def;310\u8def;320\u8def;D1\u8def", "province": "\u6c5f\u82cf\u7701", "city": "\u5357\u4eac\u5e02", "area": "\u6816\u971e\u533a", "detail": 0, "uid": "e21481e86621fb1c223bf298"}, {"name": "\u5357\u4eac\u90ae\u7535\u5927\u5b66(\u4e09\u724c\u697c\u6821\u533a)-\u5357\u95e8", "location": {"lat": 32.084292, "lng": 118.777246}, "address": "\u6c5f\u82cf\u7701\u5357\u4eac\u5e02\u9f13\u697c\u533a\u65b0\u6a21\u8303\u9a6c\u8def66\u53f7", "province": "\u6c5f\u82cf\u7701", "city": "\u5357\u4eac\u5e02", "area": "\u9f13\u697c\u533a", "street_id": "f34ecfdeafc294c216c8f668", "detail": 1, "uid": "f34ecfdeafc294c216c8f668"}, {"name": "\u5357\u4eac\u90ae\u7535\u5927\u5b66-\u5b66\u751f\u5bbf\u820d(3\u724c\u697c\u6821\u533a)", "location": {"lat": 32.087906, "lng": 118.778387}, "address": "\u6c5f\u82cf\u7701\u5357\u4eac\u5e02\u9f13\u697c\u533a\u65b0\u6a21\u8303\u9a6c\u8def66\u53f7", "province": "\u6c5f\u82cf\u7701", "city": "\u5357\u4eac\u5e02", "area": "\u9f13\u697c\u533a", "street_id": "", "detail": 1, "uid": "0e23826cf935ce69e812e486"}, {"name": "\u5357\u4eac\u90ae\u7535\u5927\u5b66\u4e1c\u6559\u5b66\u697c", "location": {"lat": 32.08486, "lng": 118.777576}, "address": "\u6c5f\u82cf\u5357\u4eac\u5e02\u9f13\u697c\u533a\u65b0\u6a21\u8303\u9a6c\u8def66\u53f7210\u53f7", "province": "\u6c5f\u82cf\u7701", "city": "\u5357\u4eac\u5e02", "area": "\u9f13\u697c\u533a", "street_id": "38893e983d6864fcc26c14e2", "detail": 1, "uid": "38893e983d6864fcc26c14e2"}, {"name": "\u5357\u4eac\u90ae\u7535\u5927\u5b66(\u4e09\u724c\u697c\u6821\u533a)-\u897f\u95e8", "location": {"lat": 32.086289, "lng": 118.774541}, "address": "\u6c5f\u82cf\u7701\u5357\u4eac\u5e02\u9f13\u697c\u533a\u5e7f\u4e1c\u8def38\u53f7", "province": "\u6c5f\u82cf\u7701", "city": "\u5357\u4eac\u5e02", "area": "\u9f13\u697c\u533a", "street_id": "2527be1e7baf85b34bfc8da0", "detail": 1, "uid": "2527be1e7baf85b34bfc8da0"}, {"name": "\u5357\u4eac\u90ae\u7535\u5927\u5b66(\u4ed9\u6797\u6821\u533a)-\u5357\u95e8", "location": {"lat": 32.111986, "lng": 118.938052}, "address": "\u6c5f\u82cf\u7701\u5357\u4eac\u5e02\u6816\u971e\u533a\u6587\u82d1\u8def9\u53f7", "province": "\u6c5f\u82cf\u7701", "city": "\u5357\u4eac\u5e02", "area": "\u6816\u971e\u533a", "street_id": "6eaafec3840d40c4441a3236", "detail": 1, "uid": "6eaafec3840d40c4441a3236"}, {"name": "\u5357\u4eac\u90ae\u7535\u5927\u5b66(\u4ed9\u6797\u6821\u533a)-\u4e1c\u5317\u95e8", "location": {"lat": 32.114275, "lng": 118.941562}, "address": "\u5357\u4eac\u5e02\u6816\u971e\u533a\u4ed9\u5883\u8def6\u53f7\u9644\u8fd1", "province": "\u6c5f\u82cf\u7701", "city": "\u5357\u4eac\u5e02", "area": "\u6816\u971e\u533a", "street_id": "52669ce776a8e4f74f6d4632", "detail": 1, "uid": "52669ce776a8e4f74f6d4632"}][{"name": "\u6cb3\u6d77\u5927\u5b66(\u6c5f\u5b81\u6821\u533a)", "location": {"lat": 31.920646, "lng": 118.792299}, "address": "\u6c5f\u82cf\u7701\u5357\u4eac\u5e02\u6c5f\u5b81\u533a\u4f5b\u57ce\u897f\u8def8\u53f7", "province": "\u6c5f\u82cf\u7701", "city": "\u5357\u4eac\u5e02", "area": "\u6c5f\u5b81\u533a", "street_id": "", "telephone": "(025)58099483", "detail": 1, "uid": "a404432faa3c773e3be4a6b5"}, {"name": "\u6cb3\u6d77\u5927\u5b66(\u897f\u5eb7\u8def\u6821\u533a)", "location": {"lat": 32.061366, "lng": 118.766027}, "address": "\u6c5f\u82cf\u7701\u5357\u4eac\u5e02\u9f13\u697c\u533a\u897f\u5eb7\u8def1\u53f7", "province": "\u6c5f\u82cf\u7701", "city": "\u5357\u4eac\u5e02", "area": "\u9f13\u697c\u533a", "street_id": "", "telephone": "(025)83786232", "detail": 1, "uid": "d7b17526752f03da42d63e8f"}, {"name": "\u6cb3\u6d77\u5927\u5b66(\u897f\u5eb7\u8def\u6821\u533a)-2\u53f7\u95e8", "location": {"lat": 32.060022, "lng": 118.763293}, "address": "\u6c5f\u82cf\u7701\u5357\u4eac\u5e02\u9f13\u697c\u533a\u864e\u8e1e\u8def88\u53f7", "province": "\u6c5f\u82cf\u7701", "city": "\u5357\u4eac\u5e02", "area": "\u9f13\u697c\u533a", "street_id": "6229ddb3d2b82f4bd81318a4", "detail": 1, "uid": "6229ddb3d2b82f4bd81318a4"}, {"name": "\u6cb3\u6d77\u5927\u5b66(\u897f\u5eb7\u8def\u6821\u533a)-\u4e1c\u95e8", "location": {"lat": 32.063892, "lng": 118.770574}, "address": "\u6c5f\u82cf\u7701\u5357\u4eac\u5e02\u9f13\u697c\u533a\u897f\u5eb7\u8def1\u53f7", "province": "\u6c5f\u82cf\u7701", "city": "\u5357\u4eac\u5e02", "area": "\u9f13\u697c\u533a", "street_id": "", "detail": 1, "uid": "3810c8793e41048b9d09f7a0"}, {"name": "\u6cb3\u6d77\u5927\u5b66\u00b7\u4f5b\u57ce\u897f\u8def", "location": {"lat": 31.920594, "lng": 118.797749}, "address": "\u5730\u94c1S1\u53f7\u7ebf", "province": "\u6c5f\u82cf\u7701", "city": "\u5357\u4eac\u5e02", "area": "\u6c5f\u5b81\u533a", "detail": 1, "uid": "41e9f684e54e9b9a631c67fd"}, {"name": "\u6cb3\u6d77\u5927\u5b66(\u6c5f\u5b81\u6821\u533a)-\u5357\u95e8", "location": {"lat": 31.91785, "lng": 118.792412}, "address": "\u6c5f\u82cf\u7701\u5357\u4eac\u5e02\u6c5f\u5b81\u533a\u4f5b\u57ce\u897f\u8def20\u53f7", "province": "\u6c5f\u82cf\u7701", "city": "\u5357\u4eac\u5e02", "area": "\u6c5f\u5b81\u533a", "street_id": "dbdcc086dea4cb67ed74f8b7", "detail": 1, "uid": "dbdcc086dea4cb67ed74f8b7"}, {"name": "\u6cb3\u6d77\u5927\u5b66(\u6c5f\u5b81\u6821\u533a)-\u4e1c\u95e8", "location": {"lat": 31.922605, "lng": 118.797536}, "address": "\u5357\u4eac\u5e02\u6c5f\u5b81\u533a\u5c06\u519b\u5927\u905364\u53f7\u6cb3\u6d77\u5927\u5b66\u6c5f\u5b81\u6821\u533a", "province": "\u6c5f\u82cf\u7701", "city": "\u5357\u4eac\u5e02", "area": "\u6c5f\u5b81\u533a", "street_id": "be1ea5efb5675abf14948e78", "detail": 1, "uid": "be1ea5efb5675abf14948e78"}, {"name": "\u6cb3\u6d77\u5927\u5b66\u00b7\u4f5b\u57ce\u897f\u8def\u5730\u94c1\u7ad9-1\u53e3", "location": {"lat": 31.920713, "lng": 118.797507}, "province": "\u6c5f\u82cf\u7701", "city": "\u5357\u4eac\u5e02", "area": "\u6c5f\u5b81\u533a", "detail": 0, "uid": "c981dda797589118f4e73be2"}, {"name": "\u6cb3\u6d77\u5927\u5b66\u00b7\u4f5b\u57ce\u897f\u8def\u5730\u94c1\u7ad9-2\u53e3", "location": {"lat": 31.919684, "lng": 118.797553}, "province": "\u6c5f\u82cf\u7701", "city": "\u5357\u4eac\u5e02", "area": "\u6c5f\u5b81\u533a", "detail": 0, "uid": "ca7e3355abd9e93d2811d10f"}, {"name": "\u6cb3\u6d77\u5927\u5b66(\u897f\u5eb7\u8def\u6821\u533a)-\u4e1c\u95e8", "location": {"lat": 32.060988, "lng": 118.770128}, "address": "\u6c5f\u82cf\u7701\u5357\u4eac\u5e02\u9f13\u697c\u533a\u897f\u5eb7\u8def1\u53f7", "province": "\u6c5f\u82cf\u7701", "city": "\u5357\u4eac\u5e02", "area": "\u9f13\u697c\u533a", "street_id": "c879fa012a778c4ac809f0a0", "detail": 1, "uid": "c879fa012a778c4ac809f0a0"}][{"name": "\u5357\u4eac\u533b\u79d1\u5927\u5b66(\u6c5f\u5b81\u6821\u533a)", "location": {"lat": 31.944119, "lng": 118.897191}, "address": "\u5357\u4eac\u5e02\u6c5f\u5b81\u533a\u9f99\u7720\u5927\u9053101\u53f7", "province": "\u6c5f\u82cf\u7701", "city": "\u5357\u4eac\u5e02", "area": "\u6c5f\u5b81\u533a", "street_id": "9ee392b8fdcdfd3fbabd63bf", "telephone": "(025)86869077", "detail": 1, "uid": "9ee392b8fdcdfd3fbabd63bf"}, {"name": "\u5357\u4eac\u533b\u79d1\u5927\u5b66(\u4e94\u53f0\u6821\u533a)", "location": {"lat": 32.050633, "lng": 118.78086}, "address": "\u6c49\u4e2d\u8def140\u53f7", "province": "\u6c5f\u82cf\u7701", "city": "\u5357\u4eac\u5e02", "area": "\u9f13\u697c\u533a", "street_id": "bb9a5e78dcb805c13be4a689", "telephone": "(025)86862618", "detail": 1, "uid": "bb9a5e78dcb805c13be4a689"}, {"name": "\u5357\u4eac\u533b\u79d1\u5927\u5b66\u9644\u5c5e\u9038\u592b\u533b\u9662", "location": {"lat": 31.938145, "lng": 118.901056}, "address": "\u9f99\u7720\u5927\u9053109\u53f7", "province": "\u6c5f\u82cf\u7701", "city": "\u5357\u4eac\u5e02", "area": "\u6c5f\u5b81\u533a", "street_id": "a5af23d5d01e2092e3110326", "telephone": "(025)87115712", "detail": 1, "uid": "a5af23d5d01e2092e3110326"}, {"name": "\u5357\u4eac\u533b\u79d1\u5927\u5b66\u9644\u5c5e\u773c\u79d1\u533b\u9662", "location": {"lat": 32.049273, "lng": 118.781357}, "address": "\u5357\u4eac\u5e02\u9f13\u697c\u533a\u6c49\u4e2d\u8def138\u53f7", "province": "\u6c5f\u82cf\u7701", "city": "\u5357\u4eac\u5e02", "area": "\u9f13\u697c\u533a", "street_id": "dbf4d6ee1864602a6ea3cca0", "telephone": "(025)86677777", "detail": 1, "uid": "dbf4d6ee1864602a6ea3cca0"}, {"name": "\u5357\u4eac\u533b\u79d1\u5927\u5b66\u7b2c\u4e8c\u9644\u5c5e\u533b\u9662(\u59dc\u5bb6\u56ed\u9662\u533a)", "location": {"lat": 32.086049, "lng": 118.751614}, "address": "\u6c5f\u82cf\u7701\u5357\u4eac\u5e02\u9f13\u697c\u533a\u59dc\u5bb6\u56ed\u8def\u59dc\u5bb6\u56ed121\u53f7", "province": "\u6c5f\u82cf\u7701", "city": "\u5357\u4eac\u5e02", "area": "\u9f13\u697c\u533a", "street_id": "4ac19f38799e47cc8bfc06b1", "telephone": "(025)58509900", "detail": 1, "uid": "4ac19f38799e47cc8bfc06b1"}, {"name": "\u5357\u4eac\u533b\u79d1\u5927\u5b66", "location": {"lat": 31.939628, "lng": 118.896684}, "address": "803\u8def;809\u8def;819\u8def;826\u8def;886\u8def", "province": "\u6c5f\u82cf\u7701", "city": "\u5357\u4eac\u5e02", "area": "\u6c5f\u5b81\u533a", "detail": 0, "uid": "9a93afd5f6e7c4c5c61e51cd"}, {"name": "\u5357\u4eac\u533b\u79d1\u5927\u5b66(\u4e94\u53f0\u6821\u533a)-\u897f\u95e8", "location": {"lat": 32.050711, "lng": 118.77922}, "address": "\u6c5f\u82cf\u7701\u5357\u4eac\u5e02\u9f13\u697c\u533a\u724c\u697c\u5df7\u4e0e\u6c38\u5e86\u5df7\u4ea4\u53c9\u53e3\u897f\u5357\u65b9\u5411170\u7c73", "province": "\u6c5f\u82cf\u7701", "city": "\u5357\u4eac\u5e02", "area": "\u9f13\u697c\u533a", "street_id": "", "detail": 1, "uid": "8f360a30c60b3a029a0050c0"}, {"name": "\u5357\u4eac\u533b\u79d1\u5927\u5b66\u53cb\u8c0a\u6574\u5f62\u5916\u79d1\u533b\u9662", "location": {"lat": 32.04892, "lng": 118.780202}, "address": "\u5357\u4eac\u5e02\u79e6\u6dee\u533a\u6c49\u4e2d\u8def146\u53f7", "province": "\u6c5f\u82cf\u7701", "city": "\u5357\u4eac\u5e02", "area": "\u79e6\u6dee\u533a", "street_id": "7bfa08fc37515c6625d2bb6e", "telephone": "(025)86677822", "detail": 1, "uid": "7bfa08fc37515c6625d2bb6e"}, {"name": "\u5357\u4eac\u533b\u79d1\u5927\u5b66(\u6c5f\u5b81\u6821\u533a)-\u897f\u5357\u95e8", "location": {"lat": 31.940374, "lng": 118.896411}, "address": "\u5357\u4eac\u5e02\u6c5f\u5b81\u533a\u9f99\u7720\u5927\u9053101\u53f7", "province": "\u6c5f\u82cf\u7701", "city": "\u5357\u4eac\u5e02", "area": "\u6c5f\u5b81\u533a", "street_id": "e2458b7d1bef9b67c17da227", "detail": 1, "uid": "e2458b7d1bef9b67c17da227"}, {"name": "\u5357\u4eac\u533b\u79d1\u5927\u5b66(\u6c5f\u5b81\u6821\u533a)-\u5317\u95e8", "location": {"lat": 31.949201, "lng": 118.895205}, "address": "\u6c5f\u82cf\u7701\u5357\u4eac\u5e02\u6c5f\u5b81\u533a\u5929\u5143\u4e1c\u8def818\u53f7", "province": "\u6c5f\u82cf\u7701", "city": "\u5357\u4eac\u5e02", "area": "\u6c5f\u5b81\u533a", "street_id": "bb0f77c358f9b8044f3a5965", "detail": 1, "uid": "bb0f77c358f9b8044f3a5965"}][{"name": "\u5357\u4eac\u8d22\u7ecf\u5927\u5b66(\u4ed9\u6797\u6821\u533a)", "location": {"lat": 32.115144, "lng": 118.928683}, "address": "\u6c5f\u82cf\u5357\u4eac\u5e02\u4ed9\u6797\u5927\u5b66\u57ce\u6587\u82d1\u8def3\u53f7", "province": "\u6c5f\u82cf\u7701", "city": "\u5357\u4eac\u5e02", "area": "\u6816\u971e\u533a", "street_id": "", "telephone": "(025)86718787", "detail": 1, "uid": "21067036d26eef739e95decd"}, {"name": "\u5357\u4eac\u8d22\u7ecf\u5927\u5b66(\u798f\u5efa\u8def\u6821\u533a)", "location": {"lat": 32.09149, "lng": 118.767767}, "address": "\u6c5f\u82cf\u7701\u5357\u4eac\u5e02\u9f13\u697c\u533a\u94c1\u8def\u5317\u8857128\u53f7", "province": "\u6c5f\u82cf\u7701", "city": "\u5357\u4eac\u5e02", "area": "\u9f13\u697c\u533a", "street_id": "", "telephone": "(025)83942955", "detail": 1, "uid": "de7026deeb694c0b9222e097"}, {"name": "\u5357\u4eac\u8d22\u7ecf\u5927\u5b66(\u4ed9\u6797\u6821\u533a)-\u5357\u95e8", "location": {"lat": 32.110714, "lng": 118.932359}, "address": "\u5357\u4eac\u5e02\u6816\u971e\u533a\u6587\u82d1\u8def3\u53f7", "province": "\u6c5f\u82cf\u7701", "city": "\u5357\u4eac\u5e02", "area": "\u6816\u971e\u533a", "street_id": "0caf5707fe8197afb21e3607", "detail": 1, "uid": "0caf5707fe8197afb21e3607"}, {"name": "\u5357\u4eac\u8d22\u7ecf\u5927\u5b66", "location": {"lat": 32.109711, "lng": 118.931344}, "address": "97\u8def;310\u8def;D1\u8def", "province": "\u6c5f\u82cf\u7701", "city": "\u5357\u4eac\u5e02", "area": "\u6816\u971e\u533a", "detail": 0, "uid": "70086b40b97e9107d7851f99"}, {"name": "\u5357\u4eac\u8d22\u7ecf\u5927\u5b66(\u4ed9\u6797\u6821\u533a)-\u897f\u5317\u95e8", "location": {"lat": 32.122872, "lng": 118.929077}, "address": "\u5357\u4eac\u5e02\u6816\u971e\u533a\u6587\u82d1\u8def3\u53f7", "province": "\u6c5f\u82cf\u7701", "city": "\u5357\u4eac\u5e02", "area": "\u6816\u971e\u533a", "street_id": "dffd631c2e18c3bc38221c51", "detail": 1, "uid": "dffd631c2e18c3bc38221c51"}, {"name": "\u5357\u4eac\u8d22\u7ecf\u5927\u5b66\u7ea2\u5c71\u5b66\u9662(\u9ad8\u6df3\u6821\u533a)", "location": {"lat": 31.400002, "lng": 118.904456}, "address": "\u5357\u4eac\u5e02\u9ad8\u6df3\u533a", "province": "\u6c5f\u82cf\u7701", "city": "\u5357\u4eac\u5e02", "area": "\u9ad8\u6df3\u533a", "detail": 1, "uid": "67dd787d326bb900ab0dd808"}, {"name": "\u5357\u4eac\u8d22\u7ecf\u5927\u5b66(\u4ed9\u6797\u6821\u533a)-\u897f\u95e8", "location": {"lat": 32.109179, "lng": 118.92264}, "address": "\u6c5f\u82cf\u7701\u5357\u4eac\u5e02\u6816\u971e\u533a\u6587\u82d1\u8def3\u53f7", "province": "\u6c5f\u82cf\u7701", "city": "\u5357\u4eac\u5e02", "area": "\u6816\u971e\u533a", "street_id": "bcc23bacf371f816f60e7719", "detail": 1, "uid": "bcc23bacf371f816f60e7719"}, {"name": "\u5357\u4eac\u8d22\u7ecf\u5927\u5b66(\u4ed9\u6797\u6821\u533a)-\u4e1c\u95e8", "location": {"lat": 32.11613, "lng": 118.933996}, "address": "\u5357\u4eac\u5e02\u6816\u971e\u533a\u6587\u82d1\u8def3\u53f7", "province": "\u6c5f\u82cf\u7701", "city": "\u5357\u4eac\u5e02", "area": "\u6816\u971e\u533a", "street_id": "6687188142f0d7e7c7f50d35", "detail": 1, "uid": "6687188142f0d7e7c7f50d35"}, {"name": "\u5357\u4eac\u8d22\u7ecf\u5927\u5b66(\u4ed9\u6797\u6821\u533a)-\u5927\u95e8", "location": {"lat": 32.110932, "lng": 118.922354}, "address": "\u5357\u4eac\u5e02\u6816\u971e\u533a\u654f\u884c\u8def\u4e0e\u6587\u6f9c\u8def\u4ea4\u53c9\u53e3\u4e1c100\u7c73", "province": "\u6c5f\u82cf\u7701", "city": "\u5357\u4eac\u5e02", "area": "\u6816\u971e\u533a", "street_id": "", "detail": 1, "uid": "ba54fb131a74811d2e47330e"}, {"name": "\u5357\u4eac\u8d22\u7ecf\u9ad8\u7b49\u804c\u4e1a\u6280\u672f\u5b66\u6821(\u83ab\u6101\u8def\u6821\u533a)", "location": {"lat": 32.046245, "lng": 118.781763}, "address": "\u6c5f\u82cf\u7701\u5357\u4eac\u5e02\u79e6\u6dee\u533a\u83ab\u6101\u8def419\u53f7", "province": "\u6c5f\u82cf\u7701", "city": "\u5357\u4eac\u5e02", "area": "\u79e6\u6dee\u533a", "street_id": "ec29c72bc0e39cf71329354a", "telephone": "(025)86612049", "detail": 1, "uid": "ec29c72bc0e39cf71329354a"}][{"name": "\u5357\u4eac\u4f53\u80b2\u5b66\u9662(\u7075\u8c37\u5bfa\u6821\u533a)", "location": {"lat": 32.049554, "lng": 118.873541}, "address": "\u5357\u4eac\u5e02\u7384\u6b66\u533a\u7075\u8c37\u5bfa\u8def8\u53f7", "province": "\u6c5f\u82cf\u7701", "city": "\u5357\u4eac\u5e02", "area": "\u7384\u6b66\u533a", "street_id": "", "telephone": "(025)84755150", "detail": 1, "uid": "49a02a7a4f1885402b201aec"}, {"name": "\u5357\u4eac\u4f53\u80b2\u5b66\u9662(\u4ed9\u6797\u6821\u533a)", "location": {"lat": 32.121628, "lng": 118.976091}, "address": "\u5357\u4eac\u5e02\u6816\u971e\u533a\u4ed9\u6797\u5927\u9053169\u53f7", "province": "\u6c5f\u82cf\u7701", "city": "\u5357\u4eac\u5e02", "area": "\u6816\u971e\u533a", "street_id": "57e60e54895c837fafee7ab9", "detail": 1, "uid": "57e60e54895c837fafee7ab9"}, {"name": "\u5357\u4eac\u4f53\u80b2\u5b66\u9662\u5965\u6797\u5339\u514b\u5b66\u9662", "location": {"lat": 31.845789, "lng": 118.571476}, "address": "\u5357\u4eac\u5e02\u6c5f\u5b81\u533a\u6ee8\u6c5f\u5f00\u53d1\u533a\u7fd4\u51e4\u8def168\u53f7", "province": "\u6c5f\u82cf\u7701", "city": "\u5357\u4eac\u5e02", "area": "\u6c5f\u5b81\u533a", "street_id": "", "telephone": "(025)81033130,(025)81031177", "detail": 1, "uid": "560174b57a2e317d5b109365"}, {"name": "\u5357\u4eac\u4f53\u80b2\u5b66\u9662(\u4e94\u68f5\u677e\u6821\u533a)", "location": {"lat": 32.052531, "lng": 118.888784}, "address": "\u6c5f\u82cf\u7701\u5357\u4eac\u5e02\u6816\u971e\u533a\u4ed9\u7075\u5927\u9053169\u53f7", "province": "\u6c5f\u82cf\u7701", "city": "\u5357\u4eac\u5e02", "area": "\u6816\u971e\u533a", "street_id": "58f21d6b294e57a3631c67de", "detail": 1, "uid": "58f21d6b294e57a3631c67de"}, {"name": "\u5357\u4eac\u5e02\u4f53\u80b2\u8fd0\u52a8\u5b66\u6821", "location": {"lat": 32.035702, "lng": 118.809425}, "address": "\u6c5f\u82cf\u7701\u5357\u4eac\u5e02\u79e6\u6dee\u533a\u516c\u56ed\u8def42\u53f7", "province": "\u6c5f\u82cf\u7701", "city": "\u5357\u4eac\u5e02", "area": "\u79e6\u6dee\u533a", "street_id": "d5f93c0e3ea3835ceddfca7e", "telephone": "(025)84498563", "detail": 1, "uid": "d5f93c0e3ea3835ceddfca7e"}, {"name": "\u5357\u4eac\u5de5\u4e1a\u5927\u5b66-\u4f53\u80b2\u5b66\u9662", "location": {"lat": 32.091016, "lng": 118.638346}, "address": "\u6c5f\u82cf\u7701\u5357\u4eac\u5e02\u6d66\u53e3\u533a\u6d66\u73e0\u5357\u8def30\u53f7", "province": "\u6c5f\u82cf\u7701", "city": "\u5357\u4eac\u5e02", "area": "\u6d66\u53e3\u533a", "detail": 1, "uid": "69bdef89c655e79c28201a76"}, {"name": "\u5357\u4eac\u4f53\u80b2\u5b66\u9662\u5965\u6797\u5339\u514b\u5b66\u9662-\u4f53\u80b2\u9986", "location": {"lat": 31.844985, "lng": 118.571716}, "address": "\u6c5f\u82cf\u7701\u5357\u4eac\u5e02\u6c5f\u5b81\u533a\u7fd4\u51e4\u8def168\u53f7", "province": "\u6c5f\u82cf\u7701", "city": "\u5357\u4eac\u5e02", "area": "\u6c5f\u5b81\u533a", "detail": 1, "uid": "c1997f7a043963c24d2fdffd"}, {"name": "\u5357\u4eac\u4f53\u80b2\u5b66\u9662(\u4ed9\u6797\u6821\u533a)-\u4e1c\u95e8", "location": {"lat": 32.124193, "lng": 118.981461}, "address": "\u5357\u4eac\u5e02\u6816\u971e\u533a\u4ed9\u6797\u5927\u9053169\u53f7", "province": "\u6c5f\u82cf\u7701", "city": "\u5357\u4eac\u5e02", "area": "\u6816\u971e\u533a", "street_id": "24230b84eb393a6509a8d465", "detail": 1, "uid": "24230b84eb393a6509a8d465"}, {"name": "\u5357\u4eac\u4f53\u80b2\u5b66\u9662(\u4ed9\u6797\u6821\u533a)-\u897f\u95e8", "location": {"lat": 32.122011, "lng": 118.971142}, "address": "\u5357\u4eac\u5e02\u6816\u971e\u533a\u4ed9\u6797\u5927\u9053169\u53f7", "province": "\u6c5f\u82cf\u7701", "city": "\u5357\u4eac\u5e02", "area": "\u6816\u971e\u533a", "street_id": "e618a981774f4e18c7f025f4", "detail": 1, "uid": "e618a981774f4e18c7f025f4"}, {"name": "\u5357\u4eac\u4f53\u80b2\u5b66\u9662(\u4ed9\u6797\u6821\u533a)\u6e38\u6cf3\u9986", "location": {"lat": 32.119346, "lng": 118.973902}, "address": "\u6c5f\u82cf\u7701\u5357\u4eac\u5e02\u6816\u971e\u533a\u4ed9\u6797\u5927\u9053169\u53f7", "province": "\u6c5f\u82cf\u7701", "city": "\u5357\u4eac\u5e02", "area": "\u6816\u971e\u533a", "street_id": "", "detail": 1, "uid": "f70c7dab4ce0476a5bf6be62"}][{"name": "\u5357\u4eac\u5de5\u4e1a\u804c\u4e1a\u6280\u672f\u5927\u5b66(\u4ed9\u6797\u6821\u533a)", "location": {"lat": 32.126757, "lng": 118.945686}, "address": "\u6c5f\u82cf\u7701\u5357\u4eac\u5e02\u6816\u971e\u533a\u4ed9\u6797\u5927\u5b66\u57ce\u7f8a\u5c71\u5317\u8def1\u53f7", "province": "\u6c5f\u82cf\u7701", "city": "\u5357\u4eac\u5e02", "area": "\u6816\u971e\u533a", "street_id": "", "telephone": "(025)85864009", "detail": 1, "uid": "285b5874c43858e4cf06a4bb"}, {"name": "\u5357\u4eac\u5de5\u4e1a\u804c\u4e1a\u6280\u672f\u5927\u5b66(\u5929\u5802\u6821\u533a)", "location": {"lat": 32.023217, "lng": 118.840701}, "address": "\u6c5f\u82cf\u7701\u5357\u4eac\u5e02\u79e6\u6dee\u533a\u519b\u519c\u8def14\u53f7", "province": "\u6c5f\u82cf\u7701", "city": "\u5357\u4eac\u5e02", "area": "\u79e6\u6dee\u533a", "street_id": "f0a67d58834098714afd3fd4", "telephone": "(025)85864212", "detail": 1, "uid": "f0a67d58834098714afd3fd4"}, {"name": "\u5357\u4eac\u5de5\u4e1a\u804c\u4e1a\u6280\u672f\u5927\u5b66(\u4e2d\u5c71\u6821\u533a)", "location": {"lat": 32.04498, "lng": 118.829241}, "address": "\u6c5f\u82cf\u7701\u5357\u4eac\u5e02\u79e6\u6dee\u533a\u4e2d\u5c71\u4e1c\u8def532-2\u53f7\u5802\u6821\u533aa2\u680b", "province": "\u6c5f\u82cf\u7701", "city": "\u5357\u4eac\u5e02", "area": "\u79e6\u6dee\u533a", "street_id": "72d869f838f19e8121022057", "telephone": "(025)84588833", "detail": 1, "uid": "72d869f838f19e8121022057"}, {"name": "\u5357\u4eac\u5de5\u4e1a\u804c\u4e1a\u6280\u672f\u5927\u5b66\u79d1\u6280\u56ed", "location": {"lat": 32.044971, "lng": 118.828905}, "address": "\u6c5f\u82cf\u7701\u5357\u4eac\u5e02\u79e6\u6dee\u533a\u4e2d\u5c71\u4e1c\u8def532-2\u53f7e\u5ea7", "province": "\u6c5f\u82cf\u7701", "city": "\u5357\u4eac\u5e02", "area": "\u79e6\u6dee\u533a", "street_id": "79941b1b5e1d8035c6effba5", "telephone": "(025)84648088", "detail": 1, "uid": "79941b1b5e1d8035c6effba5"}, {"name": "\u5357\u4eac\u5de5\u4e1a\u804c\u4e1a\u6280\u672f\u5927\u5b66\u7ecf\u6d4e\u7ba1\u7406\u5b66\u9662-\u897f\u95e8", "location": {"lat": 32.126646, "lng": 118.949215}, "address": "\u5357\u4eac\u5e02\u6816\u971e\u533a\u4ed9\u6797\u5927\u5b66\u57ce\u7f8a\u5c71\u5317\u8def1\u53f7\u9644\u8fd1", "province": "\u6c5f\u82cf\u7701", "city": "\u5357\u4eac\u5e02", "area": "\u6816\u971e\u533a", "street_id": "", "detail": 1, "uid": "b05dbdfcc37eb24df7231029"}, {"name": "\u5357\u4eac\u5de5\u4e1a\u804c\u4e1a\u6280\u672f\u5b66\u9662", "location": {"lat": 32.125643, "lng": 118.941017}, "address": "321\u8def;321\u8def\u533a\u95f4", "province": "\u6c5f\u82cf\u7701", "city": "\u5357\u4eac\u5e02", "area": "\u6816\u971e\u533a", "detail": 0, "uid": "c4c741c5adbae872cd04ef18"}, {"name": "\u5357\u4eac\u5de5\u4e1a\u804c\u4e1a\u6280\u672f\u5927\u5b66(\u4ed9\u6797\u6821\u533a)-\u5357\u95e8", "location": {"lat": 32.122735, "lng": 118.947628}, "address": "\u6c5f\u82cf\u7701\u5357\u4eac\u5e02\u6816\u971e\u533a\u7f8a\u5c71\u5317\u8def1\u53f7", "province": "\u6c5f\u82cf\u7701", "city": "\u5357\u4eac\u5e02", "area": "\u6816\u971e\u533a", "street_id": "7bc200f999a43080c9e33ced", "detail": 1, "uid": "7bc200f999a43080c9e33ced"}, {"name": "\u5357\u4eac\u5de5\u4e1a\u804c\u4e1a\u6280\u672f\u5927\u5b66\u91d1\u8776\u5927\u5b66\u79d1\u6280\u56ed-D\u680b", "location": {"lat": 32.043949, "lng": 118.829226}, "address": "\u6c5f\u82cf\u7701\u5357\u4eac\u5e02\u79e6\u6dee\u533a\u4e2d\u5c71\u4e1c\u8def532-2\u53f7", "province": "\u6c5f\u82cf\u7701", "city": "\u5357\u4eac\u5e02", "area": "\u79e6\u6dee\u533a", "street_id": "", "detail": 1, "uid": "82355fe7ec9de27380a00cc3"}, {"name": "\u5357\u4eac\u5de5\u4e1a\u804c\u4e1a\u6280\u672f\u5927\u5b66(\u4ed9\u6797\u6821\u533a)-\u5317\u95e8", "location": {"lat": 32.130376, "lng": 118.948936}, "address": "\u6c5f\u82cf\u7701\u5357\u4eac\u5e02\u6816\u971e\u533a\u6587\u6f9c\u8def99\u53f7", "province": "\u6c5f\u82cf\u7701", "city": "\u5357\u4eac\u5e02", "area": "\u6816\u971e\u533a", "street_id": "98aec8724a6b95321e58004a", "detail": 1, "uid": "98aec8724a6b95321e58004a"}, {"name": "\u5357\u4eac\u5de5\u4e1a\u804c\u4e1a\u6280\u672f\u5927\u5b66-\u5de5\u4e1a\u4e2d\u5fc3", "location": {"lat": 32.128746, "lng": 118.949783}, "address": "\u6c5f\u82cf\u7701\u5357\u4eac\u5e02\u6816\u971e\u533a\u7f8a\u5c71\u5317\u8def1\u53f7", "province": "\u6c5f\u82cf\u7701", "city": "\u5357\u4eac\u5e02", "area": "\u6816\u971e\u533a", "street_id": "c8d8d1ca228f824b220262ba", "telephone": "(025)85864009", "detail": 1, "uid": "c8d8d1ca228f824b220262ba"}][{"name": "\u5357\u4eac\u5de5\u7a0b\u5b66\u9662(\u6c5f\u5b81\u6821\u533a)", "location": {"lat": 31.928509, "lng": 118.887844}, "address": "\u6c5f\u82cf\u7701\u5357\u4eac\u5e02\u6c5f\u5b81\u533a\u5f18\u666f\u5927\u90531\u53f7", "province": "\u6c5f\u82cf\u7701", "city": "\u5357\u4eac\u5e02", "area": "\u6c5f\u5b81\u533a", "street_id": "", "telephone": "(025)86118032,(025)86118800", "detail": 1, "uid": "45dcd841566152c058f6be32"}, {"name": "\u5357\u4eac\u5de5\u7a0b\u5b66\u9662", "location": {"lat": 31.926214, "lng": 118.895871}, "address": "803\u8def", "province": "\u6c5f\u82cf\u7701", "city": "\u5357\u4eac\u5e02", "area": "\u6c5f\u5b81\u533a", "detail": 0, "uid": "0a820c2662afcb2c96ca074d"}, {"name": "\u5357\u4eac\u5de5\u7a0b\u5b66\u9662\u7ee7\u7eed\u6559\u80b2\u5b66\u9662", "location": {"lat": 32.066418, "lng": 118.758974}, "address": "\u6c5f\u82cf\u7701\u5357\u4eac\u5e02\u9f13\u697c\u533a\u5b81\u6d77\u8def\u8857\u9053\u5317\u4eac\u897f\u8def74\u53f7\u5357\u4eac\u5de5\u7a0b\u5b66\u9662", "province": "\u6c5f\u82cf\u7701", "city": "\u5357\u4eac\u5e02", "area": "\u9f13\u697c\u533a", "street_id": "", "detail": 1, "uid": "72b27dc426ece1e91576434a"}, {"name": "\u5de5\u7a0b\u5b66\u9662", "location": {"lat": 32.024781, "lng": 118.844218}, "address": "17\u8def;25\u8def;29\u8def;37\u8def;59\u8def;81\u8def;82\u8def;87\u8def;90\u8def;90\u8def\u533a\u95f4;93\u8def;110\u8def;Y24\u8def\u591c\u95f4", "province": "\u6c5f\u82cf\u7701", "city": "\u5357\u4eac\u5e02", "area": "\u79e6\u6dee\u533a", "detail": 0, "uid": "9fc5df1ad91b56f831870abe"}, {"name": "\u5357\u4eac\u5de5\u7a0b\u5b66\u9662-\u7535\u529b\u5de5\u7a0b\u5b66\u9662(\u6c5f\u5b81\u6821\u533a)", "location": {"lat": 31.928938, "lng": 118.882464}, "address": "\u6c5f\u82cf\u7701\u5357\u4eac\u5e02\u6c5f\u5b81\u533a\u5f18\u666f\u5927\u90531\u53f7", "province": "\u6c5f\u82cf\u7701", "city": "\u5357\u4eac\u5e02", "area": "\u6c5f\u5b81\u533a", "street_id": "", "detail": 1, "uid": "1de9b63e85bf6665cac3db8a"}, {"name": "\u5357\u4eac\u5de5\u7a0b\u5b66\u9662(\u6c5f\u5b81\u6821\u533a)-2\u53f7\u95e8", "location": {"lat": 31.924847, "lng": 118.883754}, "address": "\u6c5f\u82cf\u7701\u5357\u4eac\u5e02\u6c5f\u5b81\u533a\u5f18\u666f\u5927\u90531\u53f7", "province": "\u6c5f\u82cf\u7701", "city": "\u5357\u4eac\u5e02", "area": "\u6c5f\u5b81\u533a", "street_id": "fa2d30503da5db0572210bec", "detail": 1, "uid": "fa2d30503da5db0572210bec"}, {"name": "\u5357\u4eac\u5927\u5b66-\u5de5\u7a0b\u7ba1\u7406\u5b66\u9662(\u9f13\u697c\u6821\u533a)", "location": {"lat": 32.061793, "lng": 118.784151}, "address": "\u6c5f\u82cf\u7701\u5357\u4eac\u5e02\u9f13\u697c\u533a\u5e73\u4ed3\u5df75\u53f7", "province": "\u6c5f\u82cf\u7701", "city": "\u5357\u4eac\u5e02", "area": "\u9f13\u697c\u533a", "street_id": "", "telephone": "(025)83597501", "detail": 1, "uid": "de449492c1cdbdeb1676431e"}, {"name": "\u5357\u4eac\u5de5\u7a0b\u5b66\u9662(\u6c5f\u5b81\u6821\u533a)-4\u53f7\u95e8", "location": {"lat": 31.93315, "lng": 118.892994}, "address": "\u6c5f\u82cf\u7701\u5357\u4eac\u5e02\u6c5f\u5b81\u533a\u6620\u5fc3\u8def", "province": "\u6c5f\u82cf\u7701", "city": "\u5357\u4eac\u5e02", "area": "\u6c5f\u5b81\u533a", "street_id": "43b7e889aa2f6c6a58f6be7a", "detail": 1, "uid": "43b7e889aa2f6c6a58f6be7a"}, {"name": "\u6c5f\u82cf\u7701\u5357\u4eac\u5de5\u7a0b\u9ad8\u7b49\u804c\u4e1a\u5b66\u6821", "location": {"lat": 32.064654, "lng": 118.927296}, "address": "\u6c5f\u82cf\u7701\u5357\u4eac\u5e02\u6c5f\u5b81\u533a\u4e2d\u5c71\u95e8\u5916\u9e92\u897f\u8def68\u53f7", "province": "\u6c5f\u82cf\u7701", "city": "\u5357\u4eac\u5e02", "area": "\u6c5f\u5b81\u533a", "street_id": "a3f21eee983aa1442fb17e64", "telephone": "(025)84124900", "detail": 1, "uid": "a3f21eee983aa1442fb17e64"}, {"name": "\u5357\u4eac\u5de5\u7a0b\u5b66\u9662-3\u53f7\u95e8", "location": {"lat": 31.936371, "lng": 118.888577}, "address": "\u6c5f\u82cf\u7701\u5357\u4eac\u5e02\u6c5f\u5b81\u533a\u65e5\u6656\u8def", "province": "\u6c5f\u82cf\u7701", "city": "\u5357\u4eac\u5e02", "area": "\u6c5f\u5b81\u533a", "street_id": "ba20283e99ea1610ad31e5be", "detail": 1, "uid": "ba20283e99ea1610ad31e5be"}][{"name": "\u5357\u4eac\u5ba1\u8ba1\u5927\u5b66(\u6d66\u53e3\u6821\u533a)", "location": {"lat": 32.068569, "lng": 118.614913}, "address": "\u5357\u4eac\u5e02\u6d66\u53e3\u533a\u96e8\u5c71\u897f\u8def86\u53f7", "province": "\u6c5f\u82cf\u7701", "city": "\u5357\u4eac\u5e02", "area": "\u6d66\u53e3\u533a", "street_id": "", "telephone": "(025)58318820", "detail": 1, "uid": "62c2117f458fcf2b744ff13e"}, {"name": "\u5357\u4eac\u5ba1\u8ba1\u5927\u5b66\u91d1\u5ba1\u5b66\u9662", "location": {"lat": 32.093734, "lng": 118.9233}, "address": "\u6c5f\u82cf\u7701\u5357\u4eac\u5e02\u6816\u971e\u533a\u4ed9\u6797\u5927\u9053100\u53f7", "province": "\u6c5f\u82cf\u7701", "city": "\u5357\u4eac\u5e02", "area": "\u6816\u971e\u533a", "street_id": "ba149baa157ac7219122e00f", "telephone": "(025)85780038", "detail": 1, "uid": "ba149baa157ac7219122e00f"}, {"name": "\u5357\u4eac\u5ba1\u8ba1\u5927\u5b66(\u83ab\u6101\u6821\u533a)", "location": {"lat": 32.045377, "lng": 118.758553}, "address": "\u6c5f\u82cf\u7701\u5357\u4eac\u5e02\u9f13\u697c\u533a\u5317\u5729\u8def77\u53f7", "province": "\u6c5f\u82cf\u7701", "city": "\u5357\u4eac\u5e02", "area": "\u9f13\u697c\u533a", "street_id": "", "detail": 1, "uid": "0fbbb152e95079c88e7727d3"}, {"name": "\u5357\u4eac\u5ba1\u8ba1\u5927\u5b66\u6d66\u53e3\u6821\u533a-\u653f\u5e9c\u5ba1\u8ba1\u5b66\u9662", "location": {"lat": 32.06828, "lng": 118.61857}, "address": "\u6c5f\u82cf\u7701\u5357\u4eac\u5e02\u6d66\u53e3\u533a\u96e8\u5c71\u897f\u8def99\u53f7", "province": "\u6c5f\u82cf\u7701", "city": "\u5357\u4eac\u5e02", "area": "\u6d66\u53e3\u533a", "detail": 1, "uid": "04da72bfd9034a197ab55c74"}, {"name": "\u5357\u4eac\u5ba1\u8ba1\u5927\u5b66\u91d1\u878d\u5b66\u9662(\u6d66\u53e3\u6821\u533a)", "location": {"lat": 32.071425, "lng": 118.618938}, "address": "\u6c5f\u82cf\u7701\u5357\u4eac\u5e02\u6d66\u53e3\u533a\u96e8\u5c71\u897f\u8def86\u53f7", "province": "\u6c5f\u82cf\u7701", "city": "\u5357\u4eac\u5e02", "area": "\u6d66\u53e3\u533a", "street_id": "74fba402308f6b41c7f50d74", "detail": 1, "uid": "74fba402308f6b41c7f50d74"}, {"name": "\u5357\u4eac\u5ba1\u8ba1\u5927\u5b66(\u6d66\u53e3\u6821\u533a)-\u5357\u95e8", "location": {"lat": 32.067873, "lng": 118.622201}, "address": "\u6c5f\u82cf\u7701\u5357\u4eac\u5e02\u6d66\u53e3\u533a\u96e8\u5c71\u897f\u8def86\u53f7", "province": "\u6c5f\u82cf\u7701", "city": "\u5357\u4eac\u5e02", "area": "\u6d66\u53e3\u533a", "street_id": "af2e616839ac8ae92cb90859", "detail": 1, "uid": "af2e616839ac8ae92cb90859"}, {"name": "\u5357\u4eac\u5ba1\u8ba1\u5927\u5b66\u91d1\u5ba1\u5b66\u9662-\u897f\u5357\u95e8", "location": {"lat": 32.092688, "lng": 118.920714}, "address": "\u6c5f\u82cf\u7701\u5357\u4eac\u5e02\u6816\u971e\u533a\u4ed9\u6797\u5927\u9053100\u53f7", "province": "\u6c5f\u82cf\u7701", "city": "\u5357\u4eac\u5e02", "area": "\u6816\u971e\u533a", "street_id": "976cb39053836dce1d1d116d", "detail": 1, "uid": "976cb39053836dce1d1d116d"}, {"name": "\u5357\u4eac\u5ba1\u8ba1\u5927\u5b66\u91d1\u5ba1\u5b66\u9662-\u5357\u95e8", "location": {"lat": 32.090392, "lng": 118.924341}, "address": "\u5357\u4eac\u5e02\u6816\u971e\u533a\u4ed9\u9690\u5357\u8def\u4e0e\u7075\u5c71\u5317\u8def\u4ea4\u53c9\u53e3\u4e1c200\u7c73", "province": "\u6c5f\u82cf\u7701", "city": "\u5357\u4eac\u5e02", "area": "\u6816\u971e\u533a", "street_id": "05d7f44288a018cc932ca3af", "detail": 1, "uid": "05d7f44288a018cc932ca3af"}, {"name": "\u5357\u4eac\u5ba1\u8ba1\u5927\u5b66-\u4e2d\u548c\u697c", "location": {"lat": 32.068678, "lng": 118.618314}, "address": "\u6c5f\u82cf\u7701\u5357\u4eac\u5e02\u6d66\u53e3\u533a\u96e8\u5c71\u897f\u8def86\u53f7405", "province": "\u6c5f\u82cf\u7701", "city": "\u5357\u4eac\u5e02", "area": "\u6d66\u53e3\u533a", "street_id": "f5a75c8df37c6fc08c1a8930", "detail": 1, "uid": "f5a75c8df37c6fc08c1a8930"}, {"name": "\u5357\u4eac\u5ba1\u8ba1\u5927\u5b66(\u6c5f\u6d66\u6821\u533a)-\u81f4\u8fdc\u697c", "location": {"lat": 32.069481, "lng": 118.620769}, "address": "\u6c5f\u82cf\u7701\u5357\u4eac\u5e02\u6d66\u53e3\u533a\u96e8\u5c71\u897f\u8def86\u53f7", "province": "\u6c5f\u82cf\u7701", "city": "\u5357\u4eac\u5e02", "area": "\u6d66\u53e3\u533a", "detail": 1, "uid": "e0474f510e1b7898b34c498f"}]